$PFLAU,0,0,0,1,0,,0,,,*4F
$PGRMZ,221,f,3*1A
$GPRMC,164833.00,A,4506.29325,N,07537.33407,W,0.135,,220820,,,A*69
$GPGGA,164833.00,4506.29325,N,07537.33407,W,1,08,0.98,87.1,M,-34.1,M,,*54
$GPGSA,A,3,25,29,12,02,19,09,05,06,,,,,1.93,0.98,1.66*06
$PFLAU,0,1,2,1,0,,0,,,*4C
$PGRMZ,219,f,3*11
$GPRMC,164834.00,A,4506.29343,N,07537.33375,W,0.278,,220820,,,A*66
$GPGGA,164834.00,4506.29343,N,07537.33375,W,1,08,0.98,87.1,M,-34.1,M,,*51
$GPGSA,A,3,25,29,12,02,19,09,05,06,,,,,1.93,0.98,1.66*06
$PFLAU,0,1,2,1,0,,0,,,*4C
$PGRMZ,217,f,3*1F
$GPRMC,164835.00,A,4506.29358,N,07537.33370,W,0.266,,220820,,,A*67
$GPGGA,164835.00,4506.29358,N,07537.33370,W,1,08,0.98,87.7,M,-34.1,M,,*59
$GPGSA,A,3,25,29,12,02,19,09,05,06,,,,,1.93,0.98,1.66*06
$PFLAU,0,1,2,1,0,,0,,,*4C
$PGRMZ,217,f,3*1F
$GPRMC,164836.00,A,4506.29361,N,07537.33369,W,0.356,,220820,,,A*64
$GPGGA,164836.00,4506.29361,N,07537.33369,W,1,08,0.98,87.8,M,-34.1,M,,*57
$GPGSA,A,3,25,29,12,02,19,09,05,06,,,,,1.93,0.98,1.66*06
$PFLAU,0,1,2,1,0,,0,,,*4C
$PGRMZ,219,f,3*11
$GPRMC,164837.00,A,4506.29363,N,07537.33368,W,0.183,,220820,,,A*6C
$GPGGA,164837.00,4506.29363,N,07537.33368,W,1,08,0.98,87.8,M,-34.1,M,,*55
$GPGSA,A,3,25,29,12,02,19,09,05,06,,,,,1.93,0.98,1.66*06
$PFLAU,0,1,2,1,0,,0,,,*4C
$PGRMZ,218,f,3*10
$GPRMC,164838.00,A,4506.29360,N,07537.33365,W,0.206,,220820,,,A*63
$GPGGA,164838.00,4506.29360,N,07537.33365,W,1,08,0.98,87.7,M,-34.1,M,,*5B
$GPGSA,A,3,25,29,12,02,19,09,05,06,,,,,1.93,0.98,1.66*06
$PFLAU,0,1,2,1,0,,0,,,*4C
$PGRMZ,223,f,3*18
$GPRMC,164839.00,A,4506.29361,N,07537.33367,W,0.196,,220820,,,A*6B
$GPGGA,164839.00,4506.29361,N,07537.33367,W,1,08,0.98,87.4,M,-34.1,M,,*5A
$GPGSA,A,3,25,29,12,02,19,09,05,06,,,,,1.93,0.98,1.66*06
$PFLAU,0,1,2,1,0,,0,,,*4C
$PGRMZ,218,f,3*10
$GPRMC,164840.00,A,4506.29362,N,07537.33364,W,0.220,,220820,,,A*6B
$GPGGA,164840.00,4506.29362,N,07537.33364,W,1,08,0.98,87.4,M,-34.1,M,,*54
$GPGSA,A,3,25,29,12,02,19,09,05,06,,,,,1.93,0.98,1.66*06
$PFLAU,0,1,2,1,0,,0,,,*4C
$PGRMZ,219,f,3*11
$GPRMC,164841.00,A,4506.29360,N,07537.33360,W,0.176,,220820,,,A*6C
$GPGGA,164841.00,4506.29360,N,07537.33360,W,1,08,0.98,87.3,M,-34.1,M,,*54
$GPGSA,A,3,25,29,12,02,19,09,05,06,,,,,1.93,0.98,1.66*06
$PFLAU,0,1,2,1,0,,0,,,*4C
$PGRMZ,220,f,3*1B
$GPRMC,164842.00,A,4506.29360,N,07537.33358,W,0.099,,220820,,,A*64
$GPGGA,164842.00,4506.29360,N,07537.33358,W,1,08,0.98,87.2,M,-34.1,M,,*5D
$GPGSA,A,3,25,29,12,02,19,09,05,06,,,,,1.93,0.98,1.66*06
$PFLAU,0,1,2,1,0,,0,,,*4C
$PGRMZ,221,f,3*1A
$GPRMC,164843.00,A,4506.29361,N,07537.33359,W,0.127,,220820,,,A*61
$GPGGA,164843.00,4506.29361,N,07537.33359,W,1,08,0.98,87.2,M,-34.1,M,,*5C
$GPGSA,A,3,25,29,12,02,19,09,05,06,,,,,1.93,0.98,1.66*06
$PFLAU,0,1,2,1,0,,0,,,*4C
$PGRMZ,217,f,3*1F
$GPRMC,164844.00,A,4506.29358,N,07537.33357,W,0.112,,220820,,,A*64
$GPGGA,164844.00,4506.29358,N,07537.33357,W,1,08,0.98,87.3,M,-34.1,M,,*5E
$GPGSA,A,3,25,29,12,02,19,09,05,06,,,,,1.93,0.98,1.66*06
$PFLAU,0,1,2,1,0,,0,,,*4C
$PGRMZ,219,f,3*11
$GPRMC,164845.00,A,4506.29360,N,07537.33354,W,0.203,,220820,,,A*6E
$GPGGA,164845.00,4506.29360,N,07537.33354,W,1,08,0.98,87.5,M,-34.1,M,,*51
$GPGSA,A,3,25,29,12,02,19,09,05,06,,,,,1.93,0.98,1.66*06
$PFLAU,0,1,2,1,0,,0,,,*4C
$PGRMZ,218,f,3*10
$GPRMC,164846.00,A,4506.29364,N,07537.33356,W,0.172,,220820,,,A*6E
$GPGGA,164846.00,4506.29364,N,07537.33356,W,1,08,0.98,87.6,M,-34.1,M,,*57
$GPGSA,A,3,25,29,12,02,19,09,05,06,,,,,1.93,0.98,1.66*06
$PFLAU,0,1,2,1,0,,0,,,*4C
$PGRMZ,218,f,3*10
$GPRMC,164847.00,A,4506.29366,N,07537.33356,W,0.294,,220820,,,A*66
$GPGGA,164847.00,4506.29366,N,07537.33356,W,1,08,0.98,87.8,M,-34.1,M,,*5A
$GPGSA,A,3,25,29,12,02,19,09,05,06,,,,,1.93,0.98,1.66*06
$PFLAU,0,1,2,1,0,,0,,,*4C
$PGRMZ,217,f,3*1F
$GPRMC,164848.00,A,4506.29364,N,07537.33357,W,0.179,,220820,,,A*6A
$GPGGA,164848.00,4506.29364,N,07537.33357,W,1,08,0.98,87.7,M,-34.1,M,,*59
$GPGSA,A,3,25,29,12,02,19,09,05,06,,,,,1.93,0.98,1.66*06
$PFLAU,0,1,2,1,0,,0,,,*4C
$PGRMZ,218,f,3*10
$GPRMC,164849.00,A,4506.29366,N,07537.33361,W,0.288,,220820,,,A*61
$GPGGA,164849.00,4506.29366,N,07537.33361,W,1,08,0.98,87.8,M,-34.1,M,,*50
$GPGSA,A,3,25,29,12,02,19,09,05,06,,,,,1.93,0.98,1.66*06
$PFLAU,0,1,2,1,0,,0,,,*4C
$PGRMZ,219,f,3*11
$GPRMC,164850.00,A,4506.29368,N,07537.33362,W,0.039,,220820,,,A*6C
$GPGGA,164850.00,4506.29368,N,07537.33362,W,1,08,0.98,88.0,M,-34.1,M,,*52
$GPGSA,A,3,25,29,12,02,19,09,05,06,,,,,1.93,0.98,1.66*06
$PFLAU,0,1,2,1,0,,0,,,*4C
$PGRMZ,219,f,3*11
$GPRMC,164851.00,A,4506.29364,N,07537.33367,W,0.044,,220820,,,A*6E
$GPGGA,164851.00,4506.29364,N,07537.33367,W,1,08,0.98,87.8,M,-34.1,M,,*5D
$GPGSA,A,3,25,29,12,02,19,09,05,06,,,,,1.93,0.98,1.66*06
$PFLAU,0,1,2,1,0,,0,,,*4C
$PGRMZ,220,f,3*1B
$GPRMC,164852.00,A,4506.29356,N,07537.33374,W,0.231,,220820,,,A*6E
$GPGGA,164852.00,4506.29356,N,07537.33374,W,1,08,0.98,87.6,M,-34.1,M,,*53
$GPGSA,A,3,25,29,12,02,19,09,05,06,,,,,1.93,0.98,1.66*06
$PFLAU,0,1,2,1,0,,0,,,*4C
$PGRMZ,217,f,3*1F
$GPRMC,164853.00,A,4506.29348,N,07537.33384,W,0.131,,220820,,,A*6C
$GPGGA,164853.00,4506.29348,N,07537.33384,W,1,08,0.98,87.1,M,-34.1,M,,*55
$GPGSA,A,3,25,29,12,02,19,09,05,06,,,,,1.92,0.98,1.66*07
$PFLAU,0,1,2,1,0,,0,,,*4C
$PGRMZ,219,f,3*11
$GPRMC,164854.00,A,4506.29361,N,07537.33382,W,0.924,16.34,220820,,,A*44
$GPGGA,164854.00,4506.29361,N,07537.33382,W,1,08,0.98,86.6,M,-34.1,M,,*59
$GPGSA,A,3,25,29,12,02,19,09,05,06,,,,,1.92,0.98,1.66*07
$PFLAU,0,1,2,1,0,,0,,,*4C
$PGRMZ,219,f,3*11
$GPRMC,164855.00,A,4506.29367,N,07537.33382,W,0.208,,220820,,,A*68
$GPGGA,164855.00,4506.29367,N,07537.33382,W,1,08,0.98,86.2,M,-34.1,M,,*5A
$GPGSA,A,3,25,29,12,02,19,09,05,06,,,,,1.92,0.98,1.66*07
$PFLAU,0,1,2,1,0,,0,,,*4C
$PGRMZ,219,f,3*11
$GPRMC,164856.00,A,4506.29364,N,07537.33386,W,0.038,,220820,,,A*6D
$GPGGA,164856.00,4506.29364,N,07537.33386,W,1,08,0.98,86.2,M,-34.1,M,,*5E
$GPGSA,A,3,25,29,12,02,19,09,05,06,,,,,1.92,0.98,1.66*07
$PFLAU,0,1,2,1,0,,0,,,*4C
$PGRMZ,219,f,3*11
$GPRMC,164857.00,A,4506.29355,N,07537.33390,W,0.074,,220820,,,A*61
$GPGGA,164857.00,4506.29355,N,07537.33390,W,1,08,0.98,85.9,M,-34.1,M,,*52
$GPGSA,A,3,25,29,12,02,19,09,05,06,,,,,1.92,0.98,1.66*07
$PFLAU,0,1,2,1,0,,0,,,*4C
$PGRMZ,220,f,3*1B
$GPRMC,164858.00,A,4506.29351,N,07537.33392,W,0.168,,220820,,,A*64
$GPGGA,164858.00,4506.29351,N,07537.33392,W,1,09,0.98,86.0,M,-34.1,M,,*50
$GPGSA,A,3,25,29,12,02,19,09,05,06,04,,,,1.92,0.98,1.66*03
$PFLAU,0,1,2,1,0,,0,,,*4C
$PGRMZ,221,f,3*1A
$GPRMC,164859.00,A,4506.29349,N,07537.33393,W,0.079,,220820,,,A*6C
$GPGGA,164859.00,4506.29349,N,07537.33393,W,1,08,0.98,86.2,M,-34.1,M,,*5A
$GPGSA,A,3,25,29,12,02,19,09,05,06,,,,,1.92,0.98,1.66*07
$PFLAU,0,1,2,1,0,,0,,,*4C
$PGRMZ,220,f,3*1B
$GPRMC,164900.00,A,4506.29345,N,07537.33394,W,0.097,,220820,,,A*6A
$GPGGA,164900.00,4506.29345,N,07537.33394,W,1,08,0.98,86.3,M,-34.1,M,,*5D
$GPGSA,A,3,25,29,12,02,19,09,05,06,,,,,1.92,0.98,1.66*07
$PFLAU,0,1,2,1,0,,0,,,*4C
$PGRMZ,220,f,3*1B
$GPRMC,164901.00,A,4506.29346,N,07537.33391,W,0.221,,220820,,,A*62
$GPGGA,164901.00,4506.29346,N,07537.33391,W,1,08,0.98,86.3,M,-34.1,M,,*5A
$GPGSA,A,3,25,29,12,02,19,09,05,06,,,,,1.92,0.98,1.66*07
$PFLAU,0,1,2,1,0,,0,,,*4C
$PGRMZ,220,f,3*1B
$GPRMC,164902.00,A,4506.29344,N,07537.33394,W,0.183,,220820,,,A*6D
$GPGGA,164902.00,4506.29344,N,07537.33394,W,1,08,0.98,86.1,M,-34.1,M,,*5C
$GPGSA,A,3,25,29,12,02,19,09,05,06,,,,,1.92,0.98,1.66*07
$PFLAU,0,1,2,1,0,,0,,,*4C
$PGRMZ,220,f,3*1B
$GPRMC,164903.00,A,4506.29338,N,07537.33399,W,0.188,,220820,,,A*61
$GPGGA,164903.00,4506.29338,N,07537.33399,W,1,08,0.98,86.2,M,-34.1,M,,*58
$GPGSA,A,3,25,29,12,02,19,09,05,06,,,,,1.92,0.98,1.66*07
$PFLAU,0,1,2,1,0,,0,,,*4C
$PGRMZ,221,f,3*1A
$GPRMC,164904.00,A,4506.29320,N,07537.33405,W,0.271,,220820,,,A*68
$GPGGA,164904.00,4506.29320,N,07537.33405,W,1,08,0.98,85.7,M,-34.1,M,,*52
$GPGSA,A,3,25,29,12,02,19,09,05,06,,,,,1.92,0.98,1.66*07
$PFLAU,0,1,2,1,0,,0,,,*4C
$PGRMZ,219,f,3*11
$GPRMC,164905.00,A,4506.29302,N,07537.33415,W,0.138,,220820,,,A*66
$GPGGA,164905.00,4506.29302,N,07537.33415,W,1,08,0.98,85.1,M,-34.1,M,,*54
$GPGSA,A,3,25,29,12,02,19,09,05,06,,,,,1.92,0.98,1.66*07
$PFLAU,0,1,2,1,0,,0,,,*4C
$PGRMZ,218,f,3*10
$GPRMC,164906.00,A,4506.29286,N,07537.33427,W,0.270,,220820,,,A*66
$GPGGA,164906.00,4506.29286,N,07537.33427,W,1,08,0.98,84.5,M,-34.1,M,,*5E
$GPGSA,A,3,25,29,12,02,19,09,05,06,,,,,1.92,0.98,1.66*07
$PFLAU,0,1,2,1,0,,0,,,*4C
$PGRMZ,219,f,3*11
$GPRMC,164907.00,A,4506.29271,N,07537.33439,W,0.416,,220820,,,A*66
$GPGGA,164907.00,4506.29271,N,07537.33439,W,1,08,0.98,84.0,M,-34.1,M,,*5D
$GPGSA,A,3,25,29,12,02,19,09,05,06,,,,,1.92,0.98,1.66*07
$PFLAU,0,1,2,1,0,,0,,,*4C
$PGRMZ,219,f,3*11
$GPRMC,164908.00,A,4506.29269,N,07537.33447,W,0.134,,220820,,,A*6C
$GPGGA,164908.00,4506.29269,N,07537.33447,W,1,08,0.98,84.1,M,-34.1,M,,*53
$GPGSA,A,3,25,29,12,02,19,09,05,06,,,,,1.92,0.98,1.66*07
$PFLAU,0,1,2,1,0,,0,,,*4C
$PGRMZ,218,f,3*10
$GPRMC,164909.00,A,4506.29275,N,07537.33449,W,0.053,,220820,,,A*6E
$GPGGA,164909.00,4506.29275,N,07537.33449,W,1,08,0.98,84.3,M,-34.1,M,,*53
$GPGSA,A,3,25,29,12,02,19,09,05,06,,,,,1.92,0.98,1.66*07
$PFLAU,0,1,2,1,0,,0,,,*4C
$PGRMZ,219,f,3*11
$GPRMC,164910.00,A,4506.29290,N,07537.33445,W,0.101,,220820,,,A*67
$GPGGA,164910.00,4506.29290,N,07537.33445,W,1,08,0.98,84.8,M,-34.1,M,,*57
$GPGSA,A,3,25,29,12,02,19,09,05,06,,,,,1.92,0.98,1.66*07
$PFLAU,0,1,2,1,0,,0,,,*4C
$PGRMZ,218,f,3*10
$GPRMC,164911.00,A,4506.29298,N,07537.33442,W,0.099,,220820,,,A*69
$GPGGA,164911.00,4506.29298,N,07537.33442,W,1,08,0.98,85.0,M,-34.1,M,,*50
$GPGSA,A,3,25,29,12,02,19,09,05,06,,,,,1.92,0.98,1.66*07
$PFLAU,0,1,2,1,0,,0,,,*4C
$PGRMZ,217,f,3*1F
$GPRMC,164912.00,A,4506.29313,N,07537.33435,W,0.125,,220820,,,A*6E
$GPGGA,164912.00,4506.29313,N,07537.33435,W,1,08,0.98,85.4,M,-34.1,M,,*55
$GPGSA,A,3,25,29,12,02,19,09,05,06,,,,,1.92,0.98,1.66*07
$GPRMC,164913.00,A,4506.29324,N,07537.33433,W,0.144,,220820,,,A*6A
$PFLAU,0,1,2,1,0,,0,,,*4C
$PGRMZ,218,f,3*10
$GPGGA,164913.00,4506.29324,N,07537.33433,W,1,08,0.98,85.6,M,-34.1,M,,*54
$GPGSA,A,3,25,29,12,02,19,09,05,06,,,,,1.92,0.98,1.66*07
$GPRMC,164914.00,A,4506.29340,N,07537.33426,W,0.272,,220820,,,A*6D
$PFLAU,0,1,2,1,0,,0,,,*4C
$PGRMZ,218,f,3*10
$GPGGA,164914.00,4506.29340,N,07537.33426,W,1,08,0.98,86.1,M,-34.1,M,,*51
$GPGSA,A,3,25,29,12,02,19,09,05,06,,,,,1.92,0.98,1.66*07
$GPRMC,164915.00,A,4506.29359,N,07537.33422,W,0.164,,220820,,,A*64
$PFLAU,0,1,2,1,0,,0,,,*4C
$PGRMZ,227,f,3*1C
$GPGGA,164915.00,4506.29359,N,07537.33422,W,1,08,0.98,86.6,M,-34.1,M,,*5B
$GPGSA,A,3,25,29,12,02,19,09,05,06,,,,,1.92,0.98,1.66*07
$GPRMC,164916.00,A,4506.29373,N,07537.33420,W,0.236,,220820,,,A*69
$PFLAU,0,1,2,1,0,,0,,,*4C
$PGRMZ,219,f,3*11
$GPGGA,164916.00,4506.29373,N,07537.33420,W,1,08,0.97,87.0,M,-34.1,M,,*5A
$GPGSA,A,3,25,29,12,02,19,09,05,06,,,,,1.92,0.97,1.66*08
$GPRMC,164917.00,A,4506.29390,N,07537.33421,W,0.291,,220820,,,A*69
$PFLAU,0,1,2,1,0,,0,,,*4C
$PGRMZ,219,f,3*11
$GPGGA,164917.00,4506.29390,N,07537.33421,W,1,08,0.97,87.5,M,-34.1,M,,*52
$GPGSA,A,3,25,29,12,02,19,09,05,06,,,,,1.92,0.97,1.66*08
$GPRMC,164918.00,A,4506.29407,N,07537.33434,W,0.430,,220820,,,A*66
$PFLAU,0,1,2,1,0,,0,,,*4C
$PGRMZ,220,f,3*1B
$GPGGA,164918.00,4506.29407,N,07537.33434,W,1,08,0.97,87.8,M,-34.1,M,,*5D
$GPGSA,A,3,25,29,12,02,19,09,05,06,,,,,1.92,0.97,1.66*08
$GPRMC,164919.00,A,4506.29414,N,07537.33441,W,0.325,,220820,,,A*64
$PFLAU,0,1,2,1,0,,0,,,*4C
$PGRMZ,219,f,3*11
$GPGGA,164919.00,4506.29414,N,07537.33441,W,1,08,0.97,87.8,M,-34.1,M,,*5C
$GPGSA,A,3,25,29,12,02,19,09,05,06,,,,,1.92,0.97,1.65*0B
$GPRMC,164920.00,A,4506.29411,N,07537.33444,W,0.157,,220820,,,A*69
$GPGGA,164920.00,4506.29411,N,07537.33444,W,1,08,0.97,87.8,M,-34.1,M,,*56
$GPGSA,A,3,25,29,12,02,19,09,05,06,,,,,1.92,0.97,1.65*0B
$PFLAU,0,1,2,1,0,,0,,,*4C
$PGRMZ,220,f,3*1B
$GPRMC,164921.00,A,4506.29415,N,07537.33446,W,0.172,,220820,,,A*69
$GPGGA,164921.00,4506.29415,N,07537.33446,W,1,08,0.97,88.2,M,-34.1,M,,*54
$GPGSA,A,3,25,29,12,02,19,09,05,06,,,,,1.92,0.97,1.65*0B
$PFLAU,0,1,2,1,0,,0,,,*4C
$PGRMZ,218,f,3*10
$GPRMC,164922.00,A,4506.29413,N,07537.33445,W,0.224,,220820,,,A*6F
$GPGGA,164922.00,4506.29413,N,07537.33445,W,1,08,0.97,88.2,M,-34.1,M,,*52
$GPGSA,A,3,25,29,12,02,19,09,05,06,,,,,1.92,0.97,1.65*0B
$PFLAU,0,1,2,1,0,,0,,,*4C
$PGRMZ,217,f,3*1F
$GPRMC,164923.00,A,4506.29411,N,07537.33447,W,0.341,,220820,,,A*6C
$GPGGA,164923.00,4506.29411,N,07537.33447,W,1,08,0.97,88.3,M,-34.1,M,,*52
$GPGSA,A,3,25,29,12,02,19,09,05,06,,,,,1.92,0.97,1.65*0B
$PFLAU,0,1,2,1,0,,0,,,*4C
$PGRMZ,223,f,3*18
$GPRMC,164924.00,A,4506.29406,N,07537.33452,W,0.201,,220820,,,A*6C
$GPGGA,164924.00,4506.29406,N,07537.33452,W,1,08,0.97,88.2,M,-34.1,M,,*56
$GPGSA,A,3,25,29,12,02,19,09,05,06,,,,,1.92,0.97,1.65*0B
$PFLAU,0,1,2,1,0,,0,,,*4C
$PGRMZ,218,f,3*10
$GPRMC,164925.00,A,4506.29404,N,07537.33464,W,0.248,,220820,,,A*67
$GPGGA,164925.00,4506.29404,N,07537.33464,W,1,08,0.97,88.2,M,-34.1,M,,*50
$GPGSA,A,3,25,29,12,02,19,09,05,06,,,,,1.92,0.97,1.65*0B
$PFLAU,0,1,2,1,0,,0,,,*4C
$PGRMZ,219,f,3*11
$GPRMC,164926.00,A,4506.29407,N,07537.33472,W,0.066,,220820,,,A*6E
$GPGGA,164926.00,4506.29407,N,07537.33472,W,1,08,0.97,88.3,M,-34.1,M,,*56
$GPGSA,A,3,25,29,12,02,19,09,05,06,,,,,1.92,0.97,1.65*0B
$PFLAU,0,1,2,1,0,,0,,,*4C
$PGRMZ,219,f,3*11
$GPRMC,164927.00,A,4506.29407,N,07537.33470,W,0.104,,220820,,,A*68
$GPGGA,164927.00,4506.29407,N,07537.33470,W,1,08,0.97,88.5,M,-34.1,M,,*53
$GPGSA,A,3,25,29,12,02,19,09,05,06,,,,,1.92,0.97,1.65*0B
$PFLAU,0,1,2,1,0,,0,,,*4C
$PGRMZ,219,f,3*11
$GPRMC,164928.00,A,4506.29407,N,07537.33466,W,0.094,,220820,,,A*68
$GPGGA,164928.00,4506.29407,N,07537.33466,W,1,08,0.97,88.8,M,-34.1,M,,*56
$GPGSA,A,3,25,29,12,02,19,09,05,06,,,,,1.92,0.97,1.65*0B
$PFLAU,0,1,2,1,0,,0,,,*4C
$PGRMZ,217,f,3*1F
$GPRMC,164929.00,A,4506.29407,N,07537.33462,W,0.116,,220820,,,A*66
$GPGGA,164929.00,4506.29407,N,07537.33462,W,1,08,0.97,88.9,M,-34.1,M,,*52
$GPGSA,A,3,25,29,12,02,19,09,05,06,,,,,1.92,0.97,1.65*0B
$PFLAU,0,1,2,1,0,,0,,,*4C
$PGRMZ,220,f,3*1B
$GPRMC,164930.00,A,4506.29408,N,07537.33456,W,0.020,,220820,,,A*62
$GPGGA,164930.00,4506.29408,N,07537.33456,W,1,08,0.97,89.1,M,-34.1,M,,*5B
$GPGSA,A,3,25,29,12,02,19,09,05,06,,,,,1.92,0.97,1.65*0B
$PFLAU,0,1,2,1,0,,0,,,*4C
$PGRMZ,219,f,3*11
$GPRMC,164931.00,A,4506.29413,N,07537.33452,W,0.195,,220820,,,A*62
$GPGGA,164931.00,4506.29413,N,07537.33452,W,1,08,0.97,89.3,M,-34.1,M,,*56
$GPGSA,A,3,25,29,12,02,19,09,05,06,,,,,1.92,0.97,1.65*0B
$PFLAU,0,1,2,1,0,,0,,,*4C
$PGRMZ,219,f,3*11
$GPRMC,164932.00,A,4506.29415,N,07537.33448,W,0.056,,220820,,,A*62
$GPGGA,164932.00,4506.29415,N,07537.33448,W,1,08,0.97,89.4,M,-34.1,M,,*5F
$GPGSA,A,3,25,29,12,02,19,09,05,06,,,,,1.92,0.97,1.65*0B
$PFLAU,0,1,2,1,0,,0,,,*4C
$PGRMZ,221,f,3*1A
$GPRMC,164933.00,A,4506.29407,N,07537.33446,W,0.500,,220820,,,A*68
$GPGGA,164933.00,4506.29407,N,07537.33446,W,1,08,0.97,89.1,M,-34.1,M,,*56
$GPGSA,A,3,25,29,12,02,19,09,05,06,,,,,1.92,0.97,1.65*0B
$PFLAU,0,1,2,1,0,,0,,,*4C
$PGRMZ,218,f,3*10
$GPRMC,164934.00,A,4506.29402,N,07537.33447,W,0.151,,220820,,,A*6B
$GPGGA,164934.00,4506.29402,N,07537.33447,W,1,08,0.97,89.0,M,-34.1,M,,*54
$GPGSA,A,3,25,29,12,02,19,09,05,06,,,,,1.92,0.97,1.65*0B
$PFLAU,0,1,2,1,0,,0,,,*4C
$PGRMZ,220,f,3*1B
$GPRMC,164935.00,A,4506.29401,N,07537.33441,W,0.159,,220820,,,A*67
$GPGGA,164935.00,4506.29401,N,07537.33441,W,1,08,0.97,88.9,M,-34.1,M,,*58
$GPGSA,A,3,25,29,12,02,19,09,05,06,,,,,1.92,0.97,1.65*0B
$PFLAU,0,1,2,1,0,,0,,,*4C
$PGRMZ,220,f,3*1B
$GPRMC,164936.00,A,4506.29403,N,07537.33434,W,0.154,,220820,,,A*69
$GPGGA,164936.00,4506.29403,N,07537.33434,W,1,08,0.97,88.8,M,-34.1,M,,*5A
$GPGSA,A,3,25,29,12,02,19,09,05,06,,,,,1.92,0.97,1.65*0B
$PFLAU,0,1,2,1,0,,0,,,*4C
$PGRMZ,221,f,3*1A
$GPRMC,164937.00,A,4506.29406,N,07537.33426,W,0.132,,220820,,,A*6E
$GPGGA,164937.00,4506.29406,N,07537.33426,W,1,08,0.97,88.8,M,-34.1,M,,*5D
$GPGSA,A,3,25,29,12,02,19,09,05,06,,,,,1.92,0.97,1.65*0B
$PFLAU,0,1,2,1,0,,0,,,*4C
$PGRMZ,221,f,3*1A
$GPRMC,164938.00,A,4506.29408,N,07537.33421,W,0.146,,220820,,,A*6B
$GPGGA,164938.00,4506.29408,N,07537.33421,W,1,08,0.97,88.5,M,-34.1,M,,*56
$GPGSA,A,3,25,29,12,02,19,09,05,06,,,,,1.92,0.97,1.65*0B
$PFLAU,0,1,2,1,0,,0,,,*4C
$PGRMZ,221,f,3*1A
$GPRMC,164939.00,A,4506.29407,N,07537.33422,W,0.129,,220820,,,A*6F
$GPGGA,164939.00,4506.29407,N,07537.33422,W,1,08,0.97,88.3,M,-34.1,M,,*5D
$GPGSA,A,3,25,29,12,02,19,09,05,06,,,,,1.92,0.97,1.65*0B
$PFLAU,0,1,2,1,0,,0,,,*4C
$PGRMZ,218,f,3*10
$GPRMC,164940.00,A,4506.29404,N,07537.33425,W,0.134,,220820,,,A*69
$GPGGA,164940.00,4506.29404,N,07537.33425,W,1,08,0.97,88.1,M,-34.1,M,,*55
$GPGSA,A,3,25,29,12,02,19,09,05,06,,,,,1.92,0.97,1.65*0B
$PFLAU,0,1,2,1,0,,0,,,*4C
$PGRMZ,219,f,3*11
$GPRMC,164941.00,A,4506.29404,N,07537.33429,W,0.181,,220820,,,A*6A
$GPGGA,164941.00,4506.29404,N,07537.33429,W,1,08,0.97,88.0,M,-34.1,M,,*59
$GPGSA,A,3,25,29,12,02,19,09,05,06,,,,,1.92,0.97,1.65*0B
$PFLAU,0,1,2,1,0,,0,,,*4C
$PGRMZ,219,f,3*11
$GPRMC,164942.00,A,4506.29404,N,07537.33431,W,0.077,,220820,,,A*68
$GPGGA,164942.00,4506.29404,N,07537.33431,W,1,08,0.97,88.0,M,-34.1,M,,*53
$GPGSA,A,3,25,29,12,02,19,09,05,06,,,,,1.92,0.97,1.65*0B
$PFLAU,0,1,2,1,0,,0,,,*4C
$PGRMZ,218,f,3*10
$GPRMC,164943.00,A,4506.29402,N,07537.33437,W,0.226,,220820,,,A*6F
$GPGGA,164943.00,4506.29402,N,07537.33437,W,1,08,0.97,88.3,M,-34.1,M,,*51
$GPGSA,A,3,25,29,12,02,19,09,05,06,,,,,1.92,0.97,1.65*0B
$PFLAU,0,1,2,1,0,,0,,,*4C
$PGRMZ,220,f,3*1B
$GPRMC,164944.00,A,4506.29404,N,07537.33440,W,0.217,,220820,,,A*6C
$GPGGA,164944.00,4506.29404,N,07537.33440,W,1,08,0.97,88.6,M,-34.1,M,,*55
$GPGSA,A,3,25,29,12,02,19,09,05,06,,,,,1.92,0.97,1.65*0B
$PFLAA,3,-12,20,1,1,C03B2E!FLR_C03B2E,45,,0,0.1,1*60
$PFLAA,0,-1763,-2427,759,1,C06EDF!FLR_C06EDF,270,,26,-2.9,1*62
$PFLAU,2,1,2,1,3,122,2,1,24,C03B2E*3C
$PGRMZ,218,f,3*10
$GPRMC,164945.00,A,4506.29412,N,07537.33439,W,0.282,,220820,,,A*68
$GPGGA,164945.00,4506.29412,N,07537.33439,W,1,08,0.97,88.7,M,-34.1,M,,*5C
$GPGSA,A,3,25,29,12,02,19,09,05,06,,,,,1.92,0.97,1.65*0B
$PFLAA,3,-12,20,1,1,C03B2E!FLR_C03B2E,45,,0,0.1,1*60
$PFLAA,0,-1763,-2427,759,1,C06EDF!FLR_C06EDF,270,,26,-2.9,1*62
$PFLAU,2,1,2,1,3,122,2,1,24,C03B2E*3C
$PGRMZ,220,f,3*1B
$GPRMC,164946.00,A,4506.29418,N,07537.33439,W,0.060,,220820,,,A*6F
$GPGGA,164946.00,4506.29418,N,07537.33439,W,1,08,0.97,88.9,M,-34.1,M,,*5B
$GPGSA,A,3,25,29,12,02,19,09,05,06,,,,,1.92,0.97,1.65*0B
$PFLAA,3,-13,20,1,1,C03B2E!FLR_C03B2E,45,,0,0.1,1*61
$PFLAA,0,-1763,-2427,759,1,C06EDF!FLR_C06EDF,270,,26,-2.9,1*62
$PFLAU,2,1,2,1,3,123,2,1,24,C03B2E*3D
$PGRMZ,220,f,3*1B
$GPRMC,164947.00,A,4506.29418,N,07537.33439,W,0.048,,220820,,,A*64
$GPGGA,164947.00,4506.29418,N,07537.33439,W,1,08,0.97,89.1,M,-34.1,M,,*53
$GPGSA,A,3,25,29,12,02,19,09,05,06,,,,,1.92,0.97,1.65*0B
$PFLAA,3,-13,20,1,1,C03B2E!FLR_C03B2E,45,,0,0.1,1*61
$PFLAA,0,-1763,-2427,759,1,C06EDF!FLR_C06EDF,270,,26,-2.9,1*62
$PFLAU,2,1,2,1,3,123,2,1,24,C03B2E*3D
$PGRMZ,218,f,3*10
$GPRMC,164948.00,A,4506.29419,N,07537.33439,W,0.110,,220820,,,A*66
$GPGGA,164948.00,4506.29419,N,07537.33439,W,1,08,0.97,89.0,M,-34.1,M,,*5C
$GPGSA,A,3,25,29,12,02,19,09,05,06,,,,,1.92,0.97,1.65*0B
$PFLAA,3,-13,20,1,1,C03B2E!FLR_C03B2E,45,,0,0.1,1*61
$PFLAA,0,-1763,-2427,759,1,C06EDF!FLR_C06EDF,270,,26,-2.9,1*62
$PFLAU,2,1,2,1,3,123,2,1,24,C03B2E*3D
$PGRMZ,219,f,3*11
$GPRMC,164949.00,A,4506.29422,N,07537.33437,W,0.122,,220820,,,A*60
$GPGGA,164949.00,4506.29422,N,07537.33437,W,1,08,0.97,89.0,M,-34.1,M,,*5B
$GPGSA,A,3,25,29,12,02,19,09,05,06,,,,,1.92,0.97,1.65*0B
$PFLAU,0,1,2,1,0,,0,,,*4C
$PGRMZ,218,f,3*10
$GPRMC,164950.00,A,4506.29419,N,07537.33435,W,0.022,,220820,,,A*63
$GPGGA,164950.00,4506.29419,N,07537.33435,W,1,08,0.97,88.9,M,-34.1,M,,*51
$GPGSA,A,3,25,29,12,02,19,09,05,06,,,,,1.92,0.97,1.65*0B
$PFLAU,0,1,2,1,0,,0,,,*4C
$PGRMZ,218,f,3*10
$GPRMC,164951.00,A,4506.29420,N,07537.33434,W,0.117,,220820,,,A*6E
$GPGGA,164951.00,4506.29420,N,07537.33434,W,1,08,0.97,89.1,M,-34.1,M,,*52
$GPGSA,A,3,25,29,12,02,19,09,05,06,,,,,1.92,0.97,1.65*0B
$PFLAU,0,1,2,1,0,,0,,,*4C
$PGRMZ,220,f,3*1B
$GPRMC,164952.00,A,4506.29415,N,07537.33435,W,0.430,,220820,,,A*6A
$GPGGA,164952.00,4506.29415,N,07537.33435,W,1,08,0.97,89.2,M,-34.1,M,,*55
$GPGSA,A,3,25,29,12,02,19,09,05,06,,,,,1.92,0.97,1.65*0B
$PFLAU,0,1,2,1,0,,0,,,*4C
$PGRMZ,220,f,3*1B
$GPRMC,164953.00,A,4506.29405,N,07537.33439,W,0.308,,220820,,,A*6A
$GPGGA,164953.00,4506.29405,N,07537.33439,W,1,08,0.97,89.2,M,-34.1,M,,*59
$GPGSA,A,3,25,29,12,02,19,09,05,06,,,,,1.92,0.97,1.65*0B
$PFLAU,0,1,2,1,0,,0,,,*4C
$PGRMZ,220,f,3*1B
$GPRMC,164954.00,A,4506.29400,N,07537.33438,W,0.111,,220820,,,A*63
$GPGGA,164954.00,4506.29400,N,07537.33438,W,1,08,0.97,89.0,M,-34.1,M,,*58
$GPGSA,A,3,25,29,12,02,19,09,05,06,,,,,1.92,0.97,1.65*0B
$PFLAU,0,1,2,1,0,,0,,,*4C
$PGRMZ,221,f,3*1A
$GPRMC,164955.00,A,4506.29400,N,07537.33434,W,0.037,,220820,,,A*6B
$GPGGA,164955.00,4506.29400,N,07537.33434,W,1,08,0.97,89.1,M,-34.1,M,,*54
$GPGSA,A,3,25,29,12,02,19,09,05,06,,,,,1.92,0.97,1.65*0B
$PFLAU,0,1,2,1,0,,0,,,*4C
$PGRMZ,221,f,3*1A
$GPRMC,164956.00,A,4506.29402,N,07537.33434,W,0.233,,220820,,,A*6C
$GPGGA,164956.00,4506.29402,N,07537.33434,W,1,08,0.97,89.3,M,-34.1,M,,*57
$GPGSA,A,3,25,29,12,02,19,09,05,06,,,,,1.91,0.97,1.65*08
$PFLAU,0,1,2,1,0,,0,,,*4C
$PGRMZ,219,f,3*11
$GPRMC,164957.00,A,4506.29402,N,07537.33434,W,0.086,,220820,,,A*61
$GPGGA,164957.00,4506.29402,N,07537.33434,W,1,08,0.97,89.3,M,-34.1,M,,*56
$GPGSA,A,3,25,29,12,02,19,09,05,06,,,,,1.91,0.97,1.65*08
$PFLAU,0,1,2,1,0,,0,,,*4C
$PGRMZ,220,f,3*1B
$GPRMC,164958.00,A,4506.29403,N,07537.33432,W,0.189,,220820,,,A*67
$GPGGA,164958.00,4506.29403,N,07537.33432,W,1,08,0.97,89.4,M,-34.1,M,,*59
$GPGSA,A,3,25,29,12,02,19,09,05,06,,,,,1.91,0.97,1.65*08
$PFLAU,0,1,2,1,0,,0,,,*4C
$PGRMZ,221,f,3*1A
$GPRMC,164959.00,A,4506.29399,N,07537.33431,W,0.087,,220820,,,A*6E
$GPGGA,164959.00,4506.29399,N,07537.33431,W,1,08,0.97,89.4,M,-34.1,M,,*5F
$GPGSA,A,3,25,29,12,02,19,09,05,06,,,,,1.91,0.97,1.65*08
$PFLAU,0,1,2,1,0,,0,,,*4C
$PGRMZ,221,f,3*1A
$GPRMC,165000.00,A,4506.29393,N,07537.33429,W,0.039,,220820,,,A*6C
$GPGGA,165000.00,4506.29393,N,07537.33429,W,1,08,0.97,89.2,M,-34.1,M,,*5E
$GPGSA,A,3,25,29,12,02,19,09,05,06,,,,,1.91,0.97,1.65*08
$PFLAU,0,1,2,1,0,,0,,,*4C
$PGRMZ,220,f,3*1B
$GPRMC,165001.00,A,4506.29391,N,07537.33427,W,0.131,,220820,,,A*68
$GPGGA,165001.00,4506.29391,N,07537.33427,W,1,08,0.97,89.3,M,-34.1,M,,*52
$GPGSA,A,3,25,29,12,02,19,09,05,06,,,,,1.91,0.97,1.65*08
$PFLAU,0,1,2,1,0,,0,,,*4C
$PGRMZ,221,f,3*1A
$GPRMC,165002.00,A,4506.29395,N,07537.33420,W,0.525,21.94,220820,,,A*49
$GPGGA,165002.00,4506.29395,N,07537.33420,W,1,08,0.97,89.3,M,-34.1,M,,*52
$GPGSA,A,3,25,29,12,02,19,09,05,06,,,,,1.91,0.97,1.65*08
$PFLAU,0,1,2,1,0,,0,,,*4C
$PGRMZ,220,f,3*1B
$GPRMC,165003.00,A,4506.29405,N,07537.33417,W,0.421,,220820,,,A*67
$GPGGA,165003.00,4506.29405,N,07537.33417,W,1,08,0.97,89.0,M,-34.1,M,,*5A
$GPGSA,A,3,25,29,12,02,19,09,05,06,,,,,1.91,0.97,1.65*08
$PFLAU,0,1,2,1,0,,0,,,*4C
$PGRMZ,220,f,3*1B
$GPRMC,165004.00,A,4506.29460,N,07537.33440,W,3.751,351.26,220820,,,A*7B
$GPGGA,165004.00,4506.29460,N,07537.33440,W,1,08,0.97,89.3,M,-34.1,M,,*5F
$GPGSA,A,3,25,29,12,02,19,09,05,06,,,,,1.91,0.97,1.65*08
$PFLAU,0,1,2,1,0,,0,,,*4C
$PGRMZ,220,f,3*1B
$GPRMC,165005.00,A,4506.29498,N,07537.33461,W,0.459,,220820,,,A*6B
$GPGGA,165005.00,4506.29498,N,07537.33461,W,1,08,0.97,88.9,M,-34.1,M,,*51
$GPGSA,A,3,25,29,12,02,19,09,05,06,,,,,1.91,0.97,1.65*08
$PFLAU,0,1,2,1,0,,0,,,*4C
$PGRMZ,219,f,3*11
$GPRMC,165006.00,A,4506.29481,N,07537.33462,W,0.060,,220820,,,A*6D
$GPGGA,165006.00,4506.29481,N,07537.33462,W,1,08,0.97,89.1,M,-34.1,M,,*50
$GPGSA,A,3,25,29,12,02,19,09,05,06,,,,,1.91,0.97,1.65*08
$PFLAU,0,1,2,1,0,,0,,,*4C
$PGRMZ,221,f,3*1A
$GPRMC,165007.00,A,4506.29477,N,07537.33459,W,0.091,,220820,,,A*63
$GPGGA,165007.00,4506.29477,N,07537.33459,W,1,08,1.03,89.1,M,-34.1,M,,*5C
$GPGSA,A,3,25,29,12,02,19,09,05,06,,,,,2.25,1.03,2.00*08
$PFLAU,0,1,2,1,0,,0,,,*4C
$PGRMZ,219,f,3*11
$GPRMC,165008.00,A,4506.29468,N,07537.33463,W,0.242,,220820,,,A*67
$GPGGA,165008.00,4506.29468,N,07537.33463,W,1,08,0.97,89.6,M,-34.1,M,,*5F
$GPGSA,A,3,25,29,12,02,19,09,05,06,,,,,1.91,0.97,1.65*08
$PFLAU,0,1,2,1,0,,0,,,*4C
$PGRMZ,221,f,3*1A
$GPRMC,165009.00,A,4506.29467,N,07537.33462,W,0.021,,220820,,,A*6F
$GPGGA,165009.00,4506.29467,N,07537.33462,W,1,08,0.97,89.5,M,-34.1,M,,*53
$GPGSA,A,3,25,29,12,02,19,09,05,06,,,,,1.91,0.97,1.65*08
$PFLAU,0,1,2,1,0,,0,,,*4C
$PGRMZ,219,f,3*11
$GPRMC,165010.00,A,4506.29458,N,07537.33457,W,0.139,,220820,,,A*65
$GPGGA,165010.00,4506.29458,N,07537.33457,W,1,08,0.97,89.8,M,-34.1,M,,*5C
$GPGSA,A,3,25,29,12,02,19,09,05,06,,,,,1.91,0.97,1.65*08
$PFLAU,0,1,2,1,0,,0,,,*4C
$PGRMZ,220,f,3*1B
$GPRMC,165011.00,A,4506.29445,N,07537.33460,W,0.176,,220820,,,A*67
$GPGGA,165011.00,4506.29445,N,07537.33460,W,1,08,0.97,89.9,M,-34.1,M,,*54
$GPGSA,A,3,25,29,12,02,19,09,05,06,,,,,1.91,0.97,1.65*08
$PFLAU,0,1,2,1,0,,0,,,*4C
$PGRMZ,221,f,3*1A
$GPRMC,165012.00,A,4506.29433,N,07537.33462,W,0.092,,220820,,,A*6C
$GPGGA,165012.00,4506.29433,N,07537.33462,W,1,08,0.97,89.7,M,-34.1,M,,*5A
$GPGSA,A,3,25,29,12,02,19,09,05,06,,,,,1.91,0.97,1.65*08
$PFLAU,0,1,2,1,0,,0,,,*4C
$PGRMZ,220,f,3*1B
$GPRMC,165013.00,A,4506.29429,N,07537.33461,W,0.152,,220820,,,A*68
$GPGGA,165013.00,4506.29429,N,07537.33461,W,1,08,0.97,89.7,M,-34.1,M,,*53
$GPGSA,A,3,25,29,12,02,19,09,05,06,,,,,1.91,0.97,1.65*08
$PFLAU,0,1,2,1,0,,0,,,*4C
$PGRMZ,220,f,3*1B
$GPRMC,165014.00,A,4506.29428,N,07537.33456,W,0.058,,220820,,,A*61
$GPGGA,165014.00,4506.29428,N,07537.33456,W,1,08,0.97,89.7,M,-34.1,M,,*51
$GPGSA,A,3,25,29,12,02,19,09,05,06,,,,,1.91,0.97,1.65*08
$PFLAU,0,1,2,1,0,,0,,,*4C
$PGRMZ,222,f,3*19
$GPRMC,165015.00,A,4506.29427,N,07537.33448,W,0.087,,220820,,,A*62
$GPGGA,165015.00,4506.29427,N,07537.33448,W,1,08,0.97,89.6,M,-34.1,M,,*51
$GPGSA,A,3,25,29,12,02,19,09,05,06,,,,,1.91,0.97,1.65*08
$PFLAU,0,1,2,1,0,,0,,,*4C
$PGRMZ,221,f,3*1A
$GPRMC,165016.00,A,4506.29427,N,07537.33441,W,0.245,,220820,,,A*64
$GPGGA,165016.00,4506.29427,N,07537.33441,W,1,08,0.97,89.5,M,-34.1,M,,*58
$GPGSA,A,3,25,29,12,02,19,09,05,06,,,,,1.91,0.97,1.65*08
$PFLAU,0,1,2,1,0,,0,,,*4C
$PGRMZ,221,f,3*1A
$GPRMC,165017.00,A,4506.29423,N,07537.33434,W,0.227,,220820,,,A*67
$GPGGA,165017.00,4506.29423,N,07537.33434,W,1,08,0.97,89.3,M,-34.1,M,,*59
$GPGSA,A,3,25,29,12,02,19,09,05,06,,,,,1.91,0.97,1.65*08
$PFLAU,0,1,2,1,0,,0,,,*4C
$PGRMZ,222,f,3*19
$GPRMC,165018.00,A,4506.29415,N,07537.33429,W,0.120,,220820,,,A*65
$GPGGA,165018.00,4506.29415,N,07537.33429,W,1,08,0.97,89.1,M,-34.1,M,,*5D
$GPGSA,A,3,25,29,12,02,19,09,05,06,,,,,1.91,0.97,1.65*08
$PFLAU,0,1,2,1,0,,0,,,*4C
$PGRMZ,222,f,3*19
$GPRMC,165019.00,A,4506.29408,N,07537.33426,W,0.159,,220820,,,A*69
$GPGGA,165019.00,4506.29408,N,07537.33426,W,1,08,0.97,89.0,M,-34.1,M,,*5E
$GPGSA,A,3,25,29,12,02,19,09,05,06,,,,,1.91,0.97,1.64*09
$PFLAU,0,1,2,1,0,,0,,,*4C
$PGRMZ,221,f,3*1A
$GPRMC,165020.00,A,4506.29402,N,07537.33424,W,0.091,,220820,,,A*6E
$GPGGA,165020.00,4506.29402,N,07537.33424,W,1,08,0.97,89.0,M,-34.1,M,,*5C
$GPGSA,A,3,25,29,12,02,19,09,05,06,,,,,1.91,0.97,1.64*09
$PFLAU,0,1,2,1,0,,0,,,*4C
$PGRMZ,221,f,3*1A
$GPRMC,165021.00,A,4506.29398,N,07537.33424,W,0.127,,220820,,,A*67
$GPGGA,165021.00,4506.29398,N,07537.33424,W,1,08,0.97,89.0,M,-34.1,M,,*59
$GPGSA,A,3,25,29,12,02,19,09,05,06,,,,,1.91,0.97,1.64*09
$PFLAU,0,1,2,1,0,,0,,,*4C
$PGRMZ,220,f,3*1B
$GPRMC,165022.00,A,4506.29394,N,07537.33425,W,0.059,,220820,,,A*61
$GPGGA,165022.00,4506.29394,N,07537.33425,W,1,08,0.97,88.9,M,-34.1,M,,*5F
$GPGSA,A,3,25,29,12,02,19,09,05,06,,,,,1.91,0.97,1.64*09
$PFLAU,0,1,2,1,0,,0,,,*4C
$PGRMZ,220,f,3*1B
$GPRMC,165023.00,A,4506.29388,N,07537.33424,W,0.074,,220820,,,A*63
$GPGGA,165023.00,4506.29388,N,07537.33424,W,1,08,0.97,89.0,M,-34.1,M,,*5A
$GPGSA,A,3,25,29,12,02,19,09,05,06,,,,,1.91,0.97,1.64*09
$PFLAU,0,1,2,1,0,,0,,,*4C
$PGRMZ,220,f,3*1B
$GPRMC,165024.00,A,4506.29382,N,07537.33422,W,0.067,,220820,,,A*6A
$GPGGA,165024.00,4506.29382,N,07537.33422,W,1,08,0.97,89.3,M,-34.1,M,,*52
$GPGSA,A,3,25,29,12,02,19,09,05,06,,,,,1.91,0.97,1.64*09
$PFLAU,0,1,2,1,0,,0,,,*4C
$PGRMZ,220,f,3*1B
$GPRMC,165025.00,A,4506.29377,N,07537.33424,W,0.089,,220820,,,A*67
$GPGGA,165025.00,4506.29377,N,07537.33424,W,1,08,0.97,89.4,M,-34.1,M,,*58
$GPGSA,A,3,25,29,12,02,19,09,05,06,,,,,1.91,0.97,1.64*09
$PFLAA,3,5,27,-2,1,C03B2E!FLR_C03B2E,0,,0,-0.1,1*4E
$PFLAU,1,1,2,1,3,78,2,-2,28,C03B2E*23
$PGRMZ,219,f,3*11
$GPRMC,165026.00,A,4506.29371,N,07537.33426,W,0.027,,220820,,,A*64
$GPGGA,165026.00,4506.29371,N,07537.33426,W,1,08,0.97,89.3,M,-34.1,M,,*58
$GPGSA,A,3,25,29,12,02,19,09,05,06,,,,,1.91,0.97,1.64*09
$PFLAA,3,5,27,-2,1,C03B2E!FLR_C03B2E,0,,0,-0.1,1*4E
$PFLAU,1,1,2,1,3,78,2,-2,28,C03B2E*23
$PGRMZ,220,f,3*1B
$GPRMC,165027.00,A,4506.29367,N,07537.33429,W,0.129,,220820,,,A*62
$GPGGA,165027.00,4506.29367,N,07537.33429,W,1,08,0.97,89.4,M,-34.1,M,,*56
$GPGSA,A,3,25,29,12,02,19,09,05,06,,,,,1.91,0.97,1.64*09
$PFLAA,3,5,27,-2,1,C03B2E!FLR_C03B2E,0,,0,-0.1,1*4E
$PFLAU,1,1,2,1,3,78,2,-2,28,C03B2E*23
$PGRMZ,219,f,3*11
$GPRMC,165028.00,A,4506.29366,N,07537.33433,W,0.213,,220820,,,D*68
$GPGGA,165028.00,4506.29366,N,07537.33433,W,2,08,0.97,89.2,M,-34.1,M,,0000*56
$GPGSA,A,3,25,29,12,02,19,09,05,06,,,,,1.91,0.97,1.64*09
$PFLAA,3,6,27,-2,1,C03B2E!FLR_C03B2E,0,,0,-0.1,1*4D
$PFLAU,1,1,2,1,3,77,2,-2,28,C03B2E*2C
$PGRMZ,220,f,3*1B
$GPRMC,165029.00,A,4506.29370,N,07537.33440,W,0.278,,220820,,,D*67
$GPGGA,165029.00,4506.29370,N,07537.33440,W,2,08,0.97,89.0,M,-34.1,M,,0000*56
$GPGSA,A,3,25,29,12,02,19,09,05,06,,,,,1.91,0.97,1.64*09
$PFLAA,3,6,27,-1,1,C03B2E!FLR_C03B2E,0,,0,-0.1,1*4E
$PFLAU,1,1,2,1,3,77,2,-1,28,C03B2E*2F
$PGRMZ,220,f,3*1B
$GPRMC,165030.00,A,4506.29371,N,07537.33447,W,0.066,,220820,,,D*64
$GPGGA,165030.00,4506.29371,N,07537.33447,W,2,08,0.97,88.9,M,-34.1,M,,0000*50
$GPGSA,A,3,25,29,12,02,19,09,05,06,,,,,1.91,0.97,1.64*09
$PFLAA,3,5,27,-1,1,C03B2E!FLR_C03B2E,0,,0,-0.1,1*4D
$PFLAU,1,1,2,1,3,78,2,-1,28,C03B2E*20
$PGRMZ,220,f,3*1B
$GPRMC,165031.00,A,4506.29371,N,07537.33450,W,0.033,,220820,,,D*63
$GPGGA,165031.00,4506.29371,N,07537.33450,W,2,08,0.97,89.0,M,-34.1,M,,0000*5F
$GPGSA,A,3,25,29,12,02,19,09,05,06,,,,,1.91,0.97,1.64*09
$PFLAU,0,1,2,1,0,,0,,,*4C
$PGRMZ,219,f,3*11
$GPRMC,165032.00,A,4506.29374,N,07537.33455,W,0.214,,220820,,,D*67
$GPGGA,165032.00,4506.29374,N,07537.33455,W,2,08,0.97,89.2,M,-34.1,M,,0000*5E
$GPGSA,A,3,25,29,12,02,19,09,05,06,,,,,1.91,0.97,1.64*09
$PFLAU,0,1,2,1,0,,0,,,*4C
$PGRMZ,220,f,3*1B
$GPRMC,165033.00,A,4506.29374,N,07537.33460,W,0.190,,220820,,,D*6F
$GPGGA,165033.00,4506.29374,N,07537.33460,W,2,08,0.97,89.2,M,-34.1,M,,0000*59
$GPGSA,A,3,25,29,12,02,19,09,05,06,,,,,1.91,0.97,1.64*09
$PFLAU,0,1,2,1,0,,0,,,*4C
$PGRMZ,220,f,3*1B
$GPRMC,165034.00,A,4506.29369,N,07537.33462,W,0.144,,220820,,,D*6F
$GPGGA,165034.00,4506.29369,N,07537.33462,W,2,08,0.97,89.2,M,-34.1,M,,0000*50
$GPGSA,A,3,25,29,12,02,19,09,05,06,,,,,1.91,0.97,1.64*09
$PFLAU,0,1,2,1,0,,0,,,*4C
$PGRMZ,220,f,3*1B
$GPRMC,165035.00,A,4506.29363,N,07537.33462,W,0.289,,220820,,,D*66
$GPGGA,165035.00,4506.29363,N,07537.33462,W,2,08,0.97,89.3,M,-34.1,M,,0000*5A
$GPGSA,A,3,25,29,12,02,19,09,05,06,,,,,1.91,0.97,1.64*09
$PFLAU,0,1,2,1,0,,0,,,*4C
$PGRMZ,220,f,3*1B
$GPRMC,165036.00,A,4506.29364,N,07537.33461,W,0.169,,220820,,,D*6C
$GPGGA,165036.00,4506.29364,N,07537.33461,W,2,08,0.97,89.6,M,-34.1,M,,0000*58
$GPGSA,A,3,25,29,12,02,19,09,05,06,,,,,1.91,0.97,1.64*09
$PFLAU,0,1,2,1,0,,0,,,*4C
$PGRMZ,221,f,3*1A
$GPRMC,165037.00,A,4506.29368,N,07537.33459,W,0.038,,220820,,,D*6F
$GPGGA,165037.00,4506.29368,N,07537.33459,W,2,08,0.97,89.6,M,-34.1,M,,0000*5E
$GPGSA,A,3,25,29,12,02,19,09,05,06,,,,,1.91,0.97,1.64*09
$PFLAU,0,1,2,1,0,,0,,,*4C
$PGRMZ,220,f,3*1B
$GPRMC,165038.00,A,4506.29370,N,07537.33459,W,0.162,,220820,,,D*67
$GPGGA,165038.00,4506.29370,N,07537.33459,W,2,08,0.97,89.6,M,-34.1,M,,0000*58
$GPGSA,A,3,25,29,12,02,19,09,05,06,,,,,1.91,0.97,1.64*09
$PFLAU,0,1,2,1,0,,0,,,*4C
$PGRMZ,221,f,3*1A
$GPRMC,165039.00,A,4506.29373,N,07537.33460,W,0.179,,220820,,,D*65
$GPGGA,165039.00,4506.29373,N,07537.33460,W,2,08,0.97,89.7,M,-34.1,M,,0000*51
$GPGSA,A,3,25,29,12,02,19,09,05,06,,,,,1.91,0.97,1.64*09
$PFLAU,0,1,2,1,0,,0,,,*4C
$PGRMZ,220,f,3*1B
$GPRMC,165040.00,A,4506.29376,N,07537.33456,W,0.232,,220820,,,D*67
$GPGGA,165040.00,4506.29376,N,07537.33456,W,2,08,0.97,89.6,M,-34.1,M,,0000*5E
$GPGSA,A,3,25,29,12,02,19,09,05,06,,,,,1.91,0.97,1.64*09
$PFLAU,0,1,2,1,0,,0,,,*4C
$PGRMZ,221,f,3*1A
$GPRMC,165041.00,A,4506.29371,N,07537.33450,W,0.472,,220820,,,D*65
$GPGGA,165041.00,4506.29371,N,07537.33450,W,2,08,0.97,89.5,M,-34.1,M,,0000*5D
$GPGSA,A,3,25,29,12,02,19,09,05,06,,,,,1.91,0.97,1.64*09
$PFLAU,0,1,2,1,0,,0,,,*4C
$PGRMZ,221,f,3*1A
$GPRMC,165042.00,A,4506.29362,N,07537.33447,W,0.157,,220820,,,D*60
$GPGGA,165042.00,4506.29362,N,07537.33447,W,2,08,0.97,89.4,M,-34.1,M,,0000*5B
$GPGSA,A,3,25,29,12,02,19,09,05,06,,,,,1.91,0.97,1.64*09
$GPRMC,165043.00,A,4506.29359,N,07537.33444,W,0.156,,220820,,,D*6B
$PFLAU,0,1,2,1,0,,0,,,*4C
$PGRMZ,221,f,3*1A
$GPGGA,165043.00,4506.29359,N,07537.33444,W,2,08,0.97,89.2,M,-34.1,M,,0000*57
$GPGSA,A,3,25,29,12,02,19,09,05,06,,,,,1.91,0.97,1.64*09
$GPRMC,165044.00,A,4506.29358,N,07537.33440,W,0.044,,220820,,,D*6B
$PFLAU,0,1,2,1,0,,0,,,*4C
$PGRMZ,221,f,3*1A
$GPGGA,165044.00,4506.29358,N,07537.33440,W,2,08,0.97,89.1,M,-34.1,M,,0000*56
$GPGSA,A,3,25,29,12,02,19,09,05,06,,,,,1.91,0.97,1.64*09
$GPRMC,165045.00,A,4506.29354,N,07537.33438,W,0.039,,220820,,,D*63
$PFLAU,0,1,2,1,0,,0,,,*4C
$PGRMZ,220,f,3*1B
$GPGGA,165045.00,4506.29354,N,07537.33438,W,2,08,0.97,88.9,M,-34.1,M,,0000*5D
$GPGSA,A,3,25,29,12,02,19,09,05,06,,,,,1.91,0.97,1.64*09
$GPRMC,165046.00,A,4506.29353,N,07537.33435,W,0.227,,220820,,,D*67
$PFLAU,0,1,2,1,0,,0,,,*4C
$PGRMZ,221,f,3*1A
$GPGGA,165046.00,4506.29353,N,07537.33435,W,2,08,0.97,88.5,M,-34.1,M,,0000*58
$GPGSA,A,3,25,29,12,02,19,09,05,06,,,,,1.91,0.97,1.64*09
$GPRMC,165047.00,A,4506.29353,N,07537.33430,W,0.284,,220820,,,D*6A
$PFLAU,0,1,2,1,0,,0,,,*4C
$PGRMZ,221,f,3*1A
$GPGGA,165047.00,4506.29353,N,07537.33430,W,2,08,0.97,88.3,M,-34.1,M,,0000*5A
$GPGSA,A,3,25,29,12,02,19,09,05,06,,,,,1.91,0.97,1.64*09
$GPRMC,165048.00,A,4506.29356,N,07537.33424,W,0.157,,220820,,,D*68
$PFLAU,0,1,2,1,0,,0,,,*4C
$PGRMZ,222,f,3*19
$GPGGA,165048.00,4506.29356,N,07537.33424,W,2,08,0.97,88.3,M,-34.1,M,,0000*55
$GPGSA,A,3,25,29,12,02,19,09,05,06,,,,,1.91,0.97,1.64*09
$GPRMC,165049.00,A,4506.29356,N,07537.33422,W,0.134,,220820,,,D*6A
$PFLAU,0,1,2,1,0,,0,,,*4C
$PGRMZ,221,f,3*1A
$GPGGA,165049.00,4506.29356,N,07537.33422,W,2,08,0.97,88.3,M,-34.1,M,,0000*52
$GPGSA,A,3,25,29,12,02,19,09,05,06,,,,,1.91,0.97,1.64*09
$GPRMC,165050.00,A,4506.29349,N,07537.33425,W,0.239,,220820,,,D*65
$GPGGA,165050.00,4506.29349,N,07537.33425,W,2,08,0.97,87.8,M,-34.1,M,,0000*57
$GPGSA,A,3,25,29,12,02,19,09,05,06,,,,,1.91,0.97,1.64*09
$PFLAU,0,1,2,1,0,,0,,,*4C
$PGRMZ,222,f,3*19
$GPRMC,165051.00,A,4506.29344,N,07537.33427,W,0.081,,220820,,,D*6A
$GPGGA,165051.00,4506.29344,N,07537.33427,W,2,08,0.97,87.5,M,-34.1,M,,0000*54
$GPGSA,A,3,25,29,12,02,19,09,05,06,,,,,1.91,0.97,1.64*09
$PFLAU,0,1,2,1,0,,0,,,*4C
$PGRMZ,221,f,3*1A
$GPRMC,165052.00,A,4506.29339,N,07537.33430,W,0.198,,220820,,,D*6C
$GPGGA,165052.00,4506.29339,N,07537.33430,W,2,08,0.97,87.1,M,-34.1,M,,0000*5F
$GPGSA,A,3,25,29,12,02,19,09,05,06,,,,,1.91,0.97,1.64*09
$PFLAU,0,1,2,1,0,,0,,,*4C
$PGRMZ,222,f,3*19
$GPRMC,165053.00,A,4506.29337,N,07537.33431,W,0.194,,220820,,,D*6E
$GPGGA,165053.00,4506.29337,N,07537.33431,W,2,08,0.97,86.8,M,-34.1,M,,0000*59
$GPGSA,A,3,25,29,12,02,19,09,05,06,,,,,1.91,0.97,1.64*09
$PFLAU,0,1,2,1,0,,0,,,*4C
$PGRMZ,223,f,3*18
$GPRMC,165054.00,A,4506.29336,N,07537.33430,W,0.114,,220820,,,D*61
$GPGGA,165054.00,4506.29336,N,07537.33430,W,2,08,0.97,86.4,M,-34.1,M,,0000*52
$GPGSA,A,3,25,29,12,02,19,09,05,06,,,,,1.91,0.97,1.64*09
$PFLAU,0,1,2,1,0,,0,,,*4C
$PGRMZ,223,f,3*18
$GPRMC,165055.00,A,4506.29334,N,07537.33429,W,0.196,,220820,,,D*60
$GPGGA,165055.00,4506.29334,N,07537.33429,W,2,08,0.97,86.1,M,-34.1,M,,0000*5C
$GPGSA,A,3,25,29,12,02,19,09,05,06,,,,,1.91,0.97,1.64*09
$PFLAU,0,1,2,1,0,,0,,,*4C
$PGRMZ,222,f,3*19
$GPRMC,165056.00,A,4506.29340,N,07537.33427,W,0.233,,220820,,,D*62
$GPGGA,165056.00,4506.29340,N,07537.33427,W,2,08,0.97,86.3,M,-34.1,M,,0000*50
$GPGSA,A,3,25,29,12,02,19,09,05,06,,,,,1.91,0.97,1.64*09
$PFLAU,0,1,2,1,0,,0,,,*4C
$PGRMZ,222,f,3*19
$GPRMC,165057.00,A,4506.29344,N,07537.33429,W,0.242,,220820,,,D*6F
$GPGGA,165057.00,4506.29344,N,07537.33429,W,2,08,0.97,86.5,M,-34.1,M,,0000*5D
$GPGSA,A,3,25,29,12,02,19,09,05,06,,,,,1.91,0.97,1.64*09
$PFLAU,0,1,2,1,0,,0,,,*4C
$PGRMZ,221,f,3*1A
$GPRMC,165058.00,A,4506.29346,N,07537.33429,W,0.175,,220820,,,D*65
$GPGGA,165058.00,4506.29346,N,07537.33429,W,2,08,0.97,86.6,M,-34.1,M,,0000*53
$GPGSA,A,3,25,29,12,02,19,09,05,06,,,,,1.91,0.97,1.64*09
$PFLAU,0,1,2,1,0,,0,,,*4C
$PGRMZ,222,f,3*19
$GPRMC,165059.00,A,4506.29342,N,07537.33430,W,0.124,,220820,,,D*6C
$GPGGA,165059.00,4506.29342,N,07537.33430,W,2,08,0.97,86.7,M,-34.1,M,,0000*5F
$GPGSA,A,3,25,29,12,02,19,09,05,06,,,,,1.91,0.97,1.64*09
$PFLAU,0,1,2,1,0,,0,,,*4C
$PGRMZ,227,f,3*1C
$GPRMC,165100.00,A,4506.29338,N,07537.33430,W,0.096,,220820,,,D*64
$GPGGA,165100.00,4506.29338,N,07537.33430,W,2,08,0.97,86.8,M,-34.1,M,,0000*50
$GPGSA,A,3,25,29,12,02,19,09,05,06,,,,,1.91,0.97,1.64*09
$PFLAU,0,1,2,1,0,,0,,,*4C
$PGRMZ,222,f,3*19
$GPRMC,165101.00,A,4506.29336,N,07537.33431,W,0.085,,220820,,,D*68
$GPGGA,165101.00,4506.29336,N,07537.33431,W,2,08,0.97,86.9,M,-34.1,M,,0000*5F
$GPGSA,A,3,25,29,12,02,19,09,05,06,,,,,1.90,0.97,1.64*08
$PFLAU,0,1,2,1,0,,0,,,*4C
$PGRMZ,222,f,3*19
$GPRMC,165102.00,A,4506.29337,N,07537.33429,W,0.063,,220820,,,D*6B
$GPGGA,165102.00,4506.29337,N,07537.33429,W,2,08,0.97,87.0,M,-34.1,M,,0000*5C
$GPGSA,A,3,25,29,12,02,19,09,05,06,,,,,1.90,0.97,1.64*08
$PFLAU,0,1,2,1,0,,0,,,*4C
$PGRMZ,222,f,3*19
$GPRMC,165103.00,A,4506.29336,N,07537.33425,W,0.061,,220820,,,D*65
$GPGGA,165103.00,4506.29336,N,07537.33425,W,2,08,0.97,86.8,M,-34.1,M,,0000*59
$GPGSA,A,3,25,29,12,02,19,09,05,06,,,,,1.90,0.97,1.64*08
$PFLAU,0,1,2,1,0,,0,,,*4C
$PGRMZ,221,f,3*1A
$GPRMC,165104.00,A,4506.29333,N,07537.33424,W,0.098,,220820,,,D*60
$GPGGA,165104.00,4506.29333,N,07537.33424,W,2,08,0.97,86.5,M,-34.1,M,,0000*57
$GPGSA,A,3,25,29,12,02,19,09,05,06,,,,,1.90,0.97,1.64*08
$PFLAU,0,1,2,1,0,,0,,,*4C
$PGRMZ,221,f,3*1A
$GPRMC,165105.00,A,4506.29328,N,07537.33427,W,0.110,,220820,,,D*69
$GPGGA,165105.00,4506.29328,N,07537.33427,W,2,08,0.97,86.4,M,-34.1,M,,0000*5E
$GPGSA,A,3,25,29,12,02,19,09,05,06,,,,,1.90,0.97,1.64*08
$PFLAU,0,1,2,1,0,,0,,,*4C
$PGRMZ,224,f,3*1F
$GPRMC,165106.00,A,4506.29326,N,07537.33428,W,0.033,,220820,,,D*6B
$GPGGA,165106.00,4506.29326,N,07537.33428,W,2,08,0.97,86.4,M,-34.1,M,,0000*5C
$GPGSA,A,3,25,29,12,02,19,09,05,06,,,,,1.90,0.97,1.64*08
$PFLAU,0,1,2,1,0,,0,,,*4C
$PGRMZ,223,f,3*18
$GPRMC,165107.00,A,4506.29325,N,07537.33429,W,0.091,,220820,,,D*60
$GPGGA,165107.00,4506.29325,N,07537.33429,W,2,08,0.97,86.4,M,-34.1,M,,0000*5F
$GPGSA,A,3,25,29,12,02,19,09,05,06,,,,,1.90,0.97,1.64*08
$PFLAU,0,1,2,1,0,,0,,,*4C
$PGRMZ,221,f,3*1A
$GPRMC,165108.00,A,4506.29317,N,07537.33430,W,0.153,,220820,,,D*69
$GPGGA,165108.00,4506.29317,N,07537.33430,W,2,08,0.97,85.9,M,-34.1,M,,0000*57
$GPGSA,A,3,25,29,12,02,19,09,05,06,,,,,1.90,0.97,1.64*08
$PFLAU,0,1,2,1,0,,0,,,*4C
$PGRMZ,223,f,3*18
$GPRMC,165109.00,A,4506.29311,N,07537.33433,W,0.060,,220820,,,D*6C
$GPGGA,165109.00,4506.29311,N,07537.33433,W,2,08,0.97,85.6,M,-34.1,M,,0000*5C
$GPGSA,A,3,25,29,12,02,19,09,05,06,,,,,1.90,0.97,1.64*08
$PFLAU,0,1,2,1,0,,0,,,*4C
$PGRMZ,221,f,3*1A
$GPRMC,165110.00,A,4506.29303,N,07537.33439,W,0.310,,220820,,,D*69
$GPGGA,165110.00,4506.29303,N,07537.33439,W,2,08,0.97,85.5,M,-34.1,M,,0000*5E
$GPGSA,A,3,25,29,12,02,19,09,05,06,,,,,1.90,0.97,1.64*08
$PFLAU,0,1,2,1,0,,0,,,*4C
$PGRMZ,223,f,3*18
$GPRMC,165111.00,A,4506.29299,N,07537.33443,W,0.026,,220820,,,D*61
$GPGGA,165111.00,4506.29299,N,07537.33443,W,2,08,0.97,85.6,M,-34.1,M,,0000*53
$GPGSA,A,3,25,29,12,02,19,09,05,06,,,,,1.90,0.97,1.64*08
$PFLAU,0,1,2,1,0,,0,,,*4C
$PGRMZ,223,f,3*18
$GPRMC,165112.00,A,4506.29298,N,07537.33443,W,0.168,,220820,,,D*68
$GPGGA,165112.00,4506.29298,N,07537.33443,W,2,08,0.97,85.4,M,-34.1,M,,0000*53
$GPGSA,A,3,25,29,12,02,19,09,05,06,,,,,1.90,0.97,1.64*08
$PFLAU,0,1,2,1,0,,0,,,*4C
$PGRMZ,224,f,3*1F
$GPRMC,165113.00,A,4506.29297,N,07537.33442,W,0.178,,220820,,,D*66
$GPGGA,165113.00,4506.29297,N,07537.33442,W,2,08,0.97,85.3,M,-34.1,M,,0000*5B
$GPGSA,A,3,25,29,12,02,19,09,05,06,,,,,1.90,0.97,1.64*08
$PFLAU,0,1,2,1,0,,0,,,*4C
$PGRMZ,223,f,3*18
$GPRMC,165114.00,A,4506.29298,N,07537.33444,W,0.064,,220820,,,D*64
$GPGGA,165114.00,4506.29298,N,07537.33444,W,2,08,0.97,85.5,M,-34.1,M,,0000*53
$GPGSA,A,3,25,29,12,02,19,09,05,06,,,,,1.90,0.97,1.64*08
$PFLAU,0,1,2,1,0,,0,,,*4C
$PGRMZ,222,f,3*19
$GPRMC,165115.00,A,4506.29299,N,07537.33444,W,0.156,,220820,,,D*64
$GPGGA,165115.00,4506.29299,N,07537.33444,W,2,08,0.97,85.8,M,-34.1,M,,0000*5E
$GPGSA,A,3,25,29,12,02,19,09,05,06,,,,,1.90,0.97,1.64*08
$PFLAU,0,1,2,1,0,,0,,,*4C
$PGRMZ,223,f,3*18
$GPRMC,165116.00,A,4506.29300,N,07537.33445,W,0.116,,220820,,,D*63
$GPGGA,165116.00,4506.29300,N,07537.33445,W,2,08,0.97,86.1,M,-34.1,M,,0000*57
$GPGSA,A,3,25,29,12,02,19,09,05,06,,,,,1.90,0.97,1.64*08
$PFLAU,0,1,2,1,0,,0,,,*4C
$PGRMZ,221,f,3*1A
$GPRMC,165117.00,A,4506.29299,N,07537.33446,W,0.161,,220820,,,D*60
$GPGGA,165117.00,4506.29299,N,07537.33446,W,2,08,0.97,86.2,M,-34.1,M,,0000*57
$GPGSA,A,3,25,29,12,02,19,09,05,06,,,,,1.90,0.97,1.64*08
$PFLAU,0,1,2,1,0,,0,,,*4C
$PGRMZ,222,f,3*19
$GPRMC,165118.00,A,4506.29299,N,07537.33445,W,0.050,,220820,,,D*6F
$GPGGA,165118.00,4506.29299,N,07537.33445,W,2,08,0.97,86.3,M,-34.1,M,,0000*5A
$GPGSA,A,3,25,29,12,02,19,09,05,06,,,,,1.90,0.97,1.63*0F
$PFLAU,0,1,2,1,0,,0,,,*4C
$PGRMZ,223,f,3*18
$GPRMC,165119.00,A,4506.29306,N,07537.33441,W,0.103,,220820,,,D*6A
$GPGGA,165119.00,4506.29306,N,07537.33441,W,2,08,0.97,86.7,M,-34.1,M,,0000*5C
$GPGSA,A,3,25,29,12,02,19,09,05,06,,,,,1.90,0.97,1.63*0F
$PFLAU,0,1,2,1,0,,0,,,*4C
$PGRMZ,223,f,3*18
$GPRMC,165120.00,A,4506.29316,N,07537.33436,W,0.296,,220820,,,D*6E
$GPGGA,165120.00,4506.29316,N,07537.33436,W,2,08,0.97,87.1,M,-34.1,M,,0000*50
$GPGSA,A,3,25,29,12,02,19,09,05,06,,,,,1.90,0.97,1.63*0F
$PFLAU,0,1,2,1,0,,0,,,*4C
$PGRMZ,223,f,3*18
$GPRMC,165121.00,A,4506.29327,N,07537.33433,W,0.345,,220820,,,D*67
$GPGGA,165121.00,4506.29327,N,07537.33433,W,2,08,0.97,87.4,M,-34.1,M,,0000*53
$GPGSA,A,3,25,29,12,02,19,09,05,06,,,,,1.90,0.97,1.63*0F
$PFLAU,0,1,2,1,0,,0,,,*4C
$PGRMZ,221,f,3*1A
$GPRMC,165122.00,A,4506.29336,N,07537.33433,W,0.163,,220820,,,D*62
$GPGGA,165122.00,4506.29336,N,07537.33433,W,2,08,0.97,87.6,M,-34.1,M,,0000*52
$GPGSA,A,3,25,29,12,02,19,09,05,06,,,,,1.90,0.97,1.63*0F
$PFLAU,0,1,2,1,0,,0,,,*4C
$PGRMZ,223,f,3*18
$GPRMC,165123.00,A,4506.29342,N,07537.33430,W,0.089,,220820,,,D*66
$GPGGA,165123.00,4506.29342,N,07537.33430,W,2,08,0.97,88.0,M,-34.1,M,,0000*5A
$GPGSA,A,3,25,29,12,02,19,09,05,06,,,,,1.90,0.97,1.63*0F
$PFLAU,0,1,2,1,0,,0,,,*4C
$PGRMZ,223,f,3*18
$GPRMC,165124.00,A,4506.29347,N,07537.33426,W,0.091,,220820,,,D*6A
$GPGGA,165124.00,4506.29347,N,07537.33426,W,2,08,0.97,88.0,M,-34.1,M,,0000*5F
$GPGSA,A,3,25,29,12,02,19,09,05,06,,,,,1.90,0.97,1.63*0F
$PFLAU,0,1,2,1,0,,0,,,*4C
$PGRMZ,222,f,3*19
$GPRMC,165125.00,A,4506.29354,N,07537.33424,W,0.215,,220820,,,D*65
$GPGGA,165125.00,4506.29354,N,07537.33424,W,2,08,0.97,87.9,M,-34.1,M,,0000*58
$GPGSA,A,3,25,29,12,02,19,09,05,06,,,,,1.90,0.97,1.63*0F
$PFLAU,0,1,2,1,0,,0,,,*4C
$PGRMZ,222,f,3*19
$GPRMC,165126.00,A,4506.29361,N,07537.33421,W,0.350,,220820,,,D*65
$GPGGA,165126.00,4506.29361,N,07537.33421,W,2,08,0.97,88.0,M,-34.1,M,,0000*5E
$GPGSA,A,3,25,29,12,02,19,09,05,06,,,,,1.90,0.97,1.63*0F
$PFLAU,0,1,2,1,0,,0,,,*4C
$PGRMZ,223,f,3*18
$GPRMC,165127.00,A,4506.29370,N,07537.33419,W,0.177,,220820,,,D*68
$GPGGA,165127.00,4506.29370,N,07537.33419,W,2,08,0.97,88.2,M,-34.1,M,,0000*56
$GPGSA,A,3,25,29,12,02,19,09,05,06,,,,,1.90,0.97,1.63*0F
$PFLAU,0,1,2,1,0,,0,,,*4C
$PGRMZ,224,f,3*1F
$GPRMC,165128.00,A,4506.29373,N,07537.33418,W,0.092,,220820,,,D*6F
$GPGGA,165128.00,4506.29373,N,07537.33418,W,2,08,0.97,88.3,M,-34.1,M,,0000*5A
$GPGSA,A,3,25,29,12,02,19,09,05,06,,,,,1.90,0.97,1.63*0F
$PFLAU,0,1,2,1,0,,0,,,*4C
$PGRMZ,223,f,3*18
$GPRMC,165129.00,A,4506.29374,N,07537.33417,W,0.016,,220820,,,D*6A
$GPGGA,165129.00,4506.29374,N,07537.33417,W,2,08,0.97,88.3,M,-34.1,M,,0000*53
$GPGSA,A,3,25,29,12,02,19,09,05,06,,,,,1.90,0.97,1.63*0F
$PFLAU,0,1,2,1,0,,0,,,*4C
$PGRMZ,224,f,3*1F
$GPRMC,165130.00,A,4506.29374,N,07537.33418,W,0.083,,220820,,,D*61
$GPGGA,165130.00,4506.29374,N,07537.33418,W,2,08,0.97,88.4,M,-34.1,M,,0000*53
$GPGSA,A,3,25,29,12,02,19,09,05,06,,,,,1.90,0.97,1.63*0F
$PFLAU,0,1,2,1,0,,0,,,*4C
$PGRMZ,224,f,3*1F
$GPRMC,165131.00,A,4506.29372,N,07537.33420,W,0.079,,220820,,,D*68
$GPGGA,165131.00,4506.29372,N,07537.33420,W,2,08,0.97,88.5,M,-34.1,M,,0000*5E
$GPGSA,A,3,25,29,12,02,19,09,05,06,,,,,1.90,0.97,1.63*0F
$PFLAU,0,1,2,1,0,,0,,,*4C
$PGRMZ,223,f,3*18
$GPRMC,165132.00,A,4506.29370,N,07537.33420,W,0.133,,220820,,,D*66
$GPGGA,165132.00,4506.29370,N,07537.33420,W,2,08,0.97,88.6,M,-34.1,M,,0000*5C
$GPGSA,A,3,25,29,12,02,19,09,05,06,,,,,1.90,0.97,1.63*0F
$PFLAU,0,1,2,1,0,,0,,,*4C
$PGRMZ,223,f,3*18
$GPRMC,165133.00,A,4506.29370,N,07537.33420,W,0.064,,220820,,,D*64
$GPGGA,165133.00,4506.29370,N,07537.33420,W,2,08,0.97,88.6,M,-34.1,M,,0000*5D
$GPGSA,A,3,25,29,12,02,19,09,05,06,,,,,1.90,0.97,1.63*0F
$PFLAU,0,1,2,1,0,,0,,,*4C
$PGRMZ,223,f,3*18
$GPRMC,165134.00,A,4506.29370,N,07537.33424,W,0.157,,220820,,,D*66
$GPGGA,165134.00,4506.29370,N,07537.33424,W,2,08,0.97,88.7,M,-34.1,M,,0000*5F
$GPGSA,A,3,25,29,12,02,19,09,05,06,,,,,1.90,0.97,1.63*0F
$PFLAU,0,1,2,1,0,,0,,,*4C
$PGRMZ,223,f,3*18
$GPRMC,165135.00,A,4506.29370,N,07537.33426,W,0.299,,220820,,,D*64
$GPGGA,165135.00,4506.29370,N,07537.33426,W,2,08,0.97,88.9,M,-34.1,M,,0000*52
$GPGSA,A,3,25,29,12,02,19,09,05,06,,,,,1.90,0.97,1.63*0F
$PFLAU,0,1,2,1,0,,0,,,*4C
$PGRMZ,222,f,3*19
$GPRMC,165136.00,A,4506.29371,N,07537.33428,W,0.059,,220820,,,D*66
$GPGGA,165136.00,4506.29371,N,07537.33428,W,2,08,0.97,89.0,M,-34.1,M,,0000*56
$GPGSA,A,3,25,29,12,02,19,09,05,06,,,,,1.90,0.97,1.63*0F
$PFLAU,0,1,2,1,0,,0,,,*4C
$PGRMZ,222,f,3*19
$GPRMC,165137.00,A,4506.29362,N,07537.33432,W,0.344,,220820,,,D*61
$GPGGA,165137.00,4506.29362,N,07537.33432,W,2,08,0.97,88.7,M,-34.1,M,,0000*58
$GPGSA,A,3,25,29,12,02,19,09,05,06,,,,,1.90,0.97,1.63*0F
$PFLAU,0,1,2,1,0,,0,,,*4C
$PGRMZ,222,f,3*19
$GPRMC,165138.00,A,4506.29350,N,07537.33436,W,0.033,,220820,,,D*68
$GPGGA,165138.00,4506.29350,N,07537.33436,W,2,08,0.97,88.4,M,-34.1,M,,0000*51
$GPGSA,A,3,25,29,12,02,19,09,05,06,,,,,1.90,0.97,1.63*0F
$PFLAU,0,1,2,1,0,,0,,,*4C
$PGRMZ,223,f,3*18
$GPRMC,165139.00,A,4506.29345,N,07537.33442,W,0.244,,220820,,,D*6C
$GPGGA,165139.00,4506.29345,N,07537.33442,W,2,08,0.97,88.1,M,-34.1,M,,0000*52
$GPGSA,A,3,25,29,12,02,19,09,05,06,,,,,1.90,0.97,1.63*0F
$PFLAU,0,1,2,1,0,,0,,,*4C
$PGRMZ,223,f,3*18
$GPRMC,165140.00,A,4506.29345,N,07537.33444,W,0.182,,220820,,,D*6D
$GPGGA,165140.00,4506.29345,N,07537.33444,W,2,08,0.97,88.0,M,-34.1,M,,0000*5B
$GPGSA,A,3,25,29,12,02,19,09,05,06,,,,,1.90,0.97,1.63*0F
$PFLAU,0,1,2,1,0,,0,,,*4C
$PGRMZ,224,f,3*1F
$GPRMC,165141.00,A,4506.29339,N,07537.33445,W,0.377,,220820,,,D*6E
$GPGGA,165141.00,4506.29339,N,07537.33445,W,2,08,0.97,87.9,M,-34.1,M,,0000*56
$GPGSA,A,3,25,29,12,02,19,09,05,06,,,,,1.90,0.97,1.63*0F
$PFLAU,0,1,2,1,0,,0,,,*4C
$PGRMZ,223,f,3*18
$GPRMC,165142.00,A,4506.29331,N,07537.33449,W,0.489,,220820,,,D*6F
$GPGGA,165142.00,4506.29331,N,07537.33449,W,2,08,0.97,87.7,M,-34.1,M,,0000*5F
$GPGSA,A,3,25,29,12,02,19,09,05,06,,,,,1.90,0.97,1.63*0F
$PFLAU,0,1,2,1,0,,0,,,*4C
$PGRMZ,221,f,3*1A
$GPRMC,165143.00,A,4506.29328,N,07537.33447,W,0.150,,220820,,,D*69
$GPGGA,165143.00,4506.29328,N,07537.33447,W,2,08,0.97,87.7,M,-34.1,M,,0000*58
$GPGSA,A,3,25,29,12,02,19,09,05,06,,,,,1.90,0.97,1.63*0F
$PFLAU,0,1,2,1,0,,0,,,*4C
$PGRMZ,220,f,3*1B
$GPRMC,165144.00,A,4506.29341,N,07537.33440,W,0.138,,220820,,,D*68
$GPGGA,165144.00,4506.29341,N,07537.33440,W,2,08,0.97,88.0,M,-34.1,M,,0000*5F
$GPGSA,A,3,25,29,12,02,19,09,05,06,,,,,1.90,0.97,1.63*0F
$PFLAU,0,1,2,1,0,,0,,,*4C
$PGRMZ,220,f,3*1B
$GPRMC,165145.00,A,4506.29354,N,07537.33431,W,0.088,,220820,,,D*61
$GPGGA,165145.00,4506.29354,N,07537.33431,W,2,07,1.09,88.2,M,-34.1,M,,0000*57
$GPGSA,A,3,25,29,02,19,09,05,06,,,,,,1.98,1.09,1.65*04
$PFLAU,0,1,2,1,0,,0,,,*4C
$PGRMZ,220,f,3*1B
$GPRMC,165146.00,A,4506.29360,N,07537.33422,W,0.251,,220820,,,D*61
$GPGGA,165146.00,4506.29360,N,07537.33422,W,2,07,1.09,88.3,M,-34.1,M,,0000*50
$GPGSA,A,3,25,29,02,19,09,05,06,,,,,,1.98,1.09,1.65*04
$PFLAU,0,1,2,1,0,,0,,,*4C
$PGRMZ,219,f,3*11
$GPRMC,165147.00,A,4506.29370,N,07537.33414,W,0.185,,220820,,,D*6E
$GPGGA,165147.00,4506.29370,N,07537.33414,W,2,07,1.09,88.0,M,-34.1,M,,0000*56
$GPGSA,A,3,25,29,02,19,09,05,06,,,,,,1.98,1.09,1.65*04
$PFLAU,0,1,2,1,0,,0,,,*4C
$PGRMZ,222,f,3*19
$GPRMC,165148.00,A,4506.29384,N,07537.33410,W,0.465,,220820,,,D*65
$GPGGA,165148.00,4506.29384,N,07537.33410,W,2,07,1.09,87.9,M,-34.1,M,,0000*50
$GPGSA,A,3,25,29,02,19,09,05,06,,,,,,1.98,1.09,1.65*04
$PFLAU,0,1,2,1,0,,0,,,*4C
$PGRMZ,223,f,3*18
$GPRMC,165149.00,A,4506.29403,N,07537.33407,W,0.458,,220820,,,D*64
$GPGGA,165149.00,4506.29403,N,07537.33407,W,2,07,1.09,87.9,M,-34.1,M,,0000*5F
$GPGSA,A,3,25,29,02,19,09,05,06,,,,,,1.98,1.09,1.65*04
$PFLAU,0,1,2,1,0,,0,,,*4C
$PGRMZ,220,f,3*1B
$GPRMC,165150.00,A,4506.29408,N,07537.33407,W,0.325,,220820,,,D*6A
$GPGGA,165150.00,4506.29408,N,07537.33407,W,2,07,1.09,88.0,M,-34.1,M,,0000*5A
$GPGSA,A,3,25,29,02,19,09,05,06,,,,,,1.98,1.09,1.65*04
$PFLAU,0,1,2,1,0,,0,,,*4C
$PGRMZ,221,f,3*1A
$GPRMC,165151.00,A,4506.29407,N,07537.33411,W,0.184,,220820,,,D*6A
$GPGGA,165151.00,4506.29407,N,07537.33411,W,2,08,1.09,88.3,M,-34.1,M,,0000*5F
$GPGSA,A,3,25,29,12,02,19,09,05,06,,,,,1.98,1.09,1.65*07
$PFLAU,0,1,2,1,0,,0,,,*4C
$PGRMZ,222,f,3*19
$GPRMC,165152.00,A,4506.29408,N,07537.33416,W,0.056,,220820,,,D*6F
$GPGGA,165152.00,4506.29408,N,07537.33416,W,2,08,0.97,88.4,M,-34.1,M,,0000*55
$GPGSA,A,3,25,29,12,02,19,09,05,06,,,,,1.90,0.97,1.63*0F
$PFLAU,0,1,2,1,0,,0,,,*4C
$PGRMZ,221,f,3*1A
$GPRMC,165153.00,A,4506.29409,N,07537.33418,W,0.187,,220820,,,D*6C
$GPGGA,165153.00,4506.29409,N,07537.33418,W,2,08,0.97,88.1,M,-34.1,M,,0000*5E
$GPGSA,A,3,25,29,12,02,19,09,05,06,,,,,1.90,0.97,1.63*0F
$PFLAU,0,1,2,1,0,,0,,,*4C
$PGRMZ,219,f,3*11
$GPRMC,165154.00,A,4506.29408,N,07537.33418,W,0.180,,220820,,,D*6D
$GPGGA,165154.00,4506.29408,N,07537.33418,W,2,08,0.97,87.9,M,-34.1,M,,0000*5F
$GPGSA,A,3,25,29,12,02,19,09,05,06,,,,,1.90,0.97,1.63*0F
$PFLAU,0,1,2,1,0,,0,,,*4C
$PGRMZ,221,f,3*1A
$GPRMC,165155.00,A,4506.29407,N,07537.33420,W,0.267,,220820,,,D*62
$GPGGA,165155.00,4506.29407,N,07537.33420,W,2,08,0.97,87.6,M,-34.1,M,,0000*55
$GPGSA,A,3,25,29,12,02,19,09,05,06,,,,,1.90,0.97,1.63*0F
$PFLAU,0,1,2,1,0,,0,,,*4C
$PGRMZ,220,f,3*1B
$GPRMC,165156.00,A,4506.29403,N,07537.33424,W,0.200,,220820,,,D*60
$GPGGA,165156.00,4506.29403,N,07537.33424,W,2,08,0.97,87.2,M,-34.1,M,,0000*52
$GPGSA,A,3,25,29,12,02,19,09,05,06,,,,,1.90,0.97,1.63*0F
$PFLAU,0,1,2,1,0,,0,,,*4C
$PGRMZ,221,f,3*1A
$GPRMC,165157.00,A,4506.29389,N,07537.33429,W,0.034,,220820,,,D*6C
$GPGGA,165157.00,4506.29389,N,07537.33429,W,2,08,0.97,86.7,M,-34.1,M,,0000*5F
$GPGSA,A,3,25,29,12,02,19,09,05,06,,,,,1.90,0.97,1.63*0F
$PFLAU,0,1,2,1,0,,0,,,*4C
$PGRMZ,223,f,3*18
$GPRMC,165158.00,A,4506.29381,N,07537.33437,W,0.169,,220820,,,D*6D
$GPGGA,165158.00,4506.29381,N,07537.33437,W,2,08,0.97,86.3,M,-34.1,M,,0000*53
$GPGSA,A,3,25,29,12,02,19,09,05,06,,,,,1.90,0.97,1.63*0F
$PFLAU,0,1,2,1,0,,0,,,*4C
$PGRMZ,223,f,3*18
$GPRMC,165159.00,A,4506.29369,N,07537.33444,W,0.171,,220820,,,D*67
$GPGGA,165159.00,4506.29369,N,07537.33444,W,2,08,0.97,86.0,M,-34.1,M,,0000*53
$GPGSA,A,3,25,29,12,02,19,09,05,06,,,,,1.90,0.97,1.63*0F
$PFLAU,0,1,2,1,0,,0,,,*4C
$PGRMZ,223,f,3*18
$GPRMC,165200.00,A,4506.29355,N,07537.33447,W,0.138,,220820,,,D*69
$GPGGA,165200.00,4506.29355,N,07537.33447,W,2,08,0.97,85.5,M,-34.1,M,,0000*56
$GPGSA,A,3,25,29,12,02,19,09,05,06,,,,,1.90,0.97,1.63*0F
$PFLAU,0,1,2,1,0,,0,,,*4C
$PGRMZ,221,f,3*1A
$GPRMC,165201.00,A,4506.29346,N,07537.33447,W,0.297,,220820,,,D*6C
$GPGGA,165201.00,4506.29346,N,07537.33447,W,2,08,0.97,85.1,M,-34.1,M,,0000*51
$GPGSA,A,3,25,29,12,02,19,09,05,06,,,,,1.90,0.97,1.63*0F
$PFLAU,0,1,2,1,0,,0,,,*4C
$PGRMZ,223,f,3*18
$GPRMC,165202.00,A,4506.29339,N,07537.33449,W,0.329,,220820,,,D*6D
$GPGGA,165202.00,4506.29339,N,07537.33449,W,2,08,0.97,84.8,M,-34.1,M,,0000*5C
$GPGSA,A,3,25,29,12,02,19,09,05,06,,,,,1.90,0.97,1.63*0F
$PFLAU,0,1,2,1,0,,0,,,*4C
$PGRMZ,223,f,3*18
$GPRMC,165203.00,A,4506.29324,N,07537.33451,W,0.143,,220820,,,D*67
$GPGGA,165203.00,4506.29324,N,07537.33451,W,2,08,0.97,84.6,M,-34.1,M,,0000*56
$GPGSA,A,3,25,29,12,02,19,09,05,06,,,,,1.90,0.97,1.63*0F
$PFLAU,0,1,2,1,0,,0,,,*4C
$PGRMZ,221,f,3*1A
$GPRMC,165204.00,A,4506.29308,N,07537.33455,W,0.167,,220820,,,D*6C
$GPGGA,165204.00,4506.29308,N,07537.33455,W,2,08,0.97,84.3,M,-34.1,M,,0000*5E
$GPGSA,A,3,25,29,12,02,19,09,05,06,,,,,1.90,0.97,1.63*0F
$PFLAU,0,1,2,1,0,,0,,,*4C
$PGRMZ,224,f,3*1F
$GPRMC,165205.00,A,4506.29300,N,07537.33451,W,0.556,,220820,,,D*67
$GPGGA,165205.00,4506.29300,N,07537.33451,W,2,08,0.97,84.6,M,-34.1,M,,0000*56
$GPGSA,A,3,25,29,12,02,19,09,05,06,,,,,1.89,0.97,1.63*07
$PFLAU,0,1,2,1,0,,0,,,*4C
$PGRMZ,220,f,3*1B
$GPRMC,165206.00,A,4506.29293,N,07537.33447,W,0.126,,220820,,,D*6B
$GPGGA,165206.00,4506.29293,N,07537.33447,W,2,08,0.97,84.8,M,-34.1,M,,0000*57
$GPGSA,A,3,25,29,12,02,19,09,05,06,,,,,1.89,0.97,1.63*07
$PFLAU,0,1,2,1,0,,0,,,*4C
$PGRMZ,225,f,3*1E
$GPRMC,165207.00,A,4506.29286,N,07537.33442,W,0.240,,220820,,,D*68
$GPGGA,165207.00,4506.29286,N,07537.33442,W,2,08,0.97,85.0,M,-34.1,M,,0000*5E
$GPGSA,A,3,25,29,12,02,19,09,05,06,,,,,1.89,0.97,1.63*07
$PFLAA,3,7,17,9,1,C03B2E!FLR_C03B2E,0,,0,0.1,1*44
$PFLAU,1,1,2,1,3,67,2,9,18,C03B2E*08
$PGRMZ,220,f,3*1B
$GPRMC,165208.00,A,4506.29284,N,07537.33437,W,0.044,,220820,,,D*61
$GPGGA,165208.00,4506.29284,N,07537.33437,W,2,08,0.97,85.1,M,-34.1,M,,0000*50
$GPGSA,A,3,25,29,12,02,19,09,05,06,,,,,1.89,0.97,1.63*07
$PFLAA,3,7,17,9,1,C03B2E!FLR_C03B2E,0,,0,0.1,1*44
$PFLAU,1,1,2,1,3,67,2,9,18,C03B2E*08
$PGRMZ,223,f,3*18
$GPRMC,165209.00,A,4506.29299,N,07537.33429,W,0.352,,220820,,,D*67
$GPGGA,165209.00,4506.29299,N,07537.33429,W,2,08,0.97,85.8,M,-34.1,M,,0000*5B
$GPGSA,A,3,25,29,12,02,19,09,05,06,,,,,1.89,0.97,1.63*07
$PFLAA,3,7,17,8,1,C03B2E!FLR_C03B2E,0,,0,0.1,1*45
$PFLAU,1,1,2,1,3,67,2,8,18,C03B2E*09
$PGRMZ,223,f,3*18
$GPRMC,165210.00,A,4506.29318,N,07537.33420,W,0.353,,220820,,,D*6F
$GPGGA,165210.00,4506.29318,N,07537.33420,W,2,08,0.97,86.3,M,-34.1,M,,0000*5A
$GPGSA,A,3,25,29,12,02,19,09,05,06,,,,,1.89,0.97,1.63*07
$PFLAA,3,7,17,7,1,C03B2E!FLR_C03B2E,0,,0,0.1,1*4A
$PFLAU,1,1,2,1,3,67,2,7,18,C03B2E*06
$PGRMZ,221,f,3*1A
$GPRMC,165211.00,A,4506.29334,N,07537.33413,W,0.089,,220820,,,D*64
$GPGGA,165211.00,4506.29334,N,07537.33413,W,2,08,0.97,86.5,M,-34.1,M,,0000*53
$GPGSA,A,3,25,29,12,02,19,09,05,06,,,,,1.89,0.97,1.63*07
$PFLAA,3,6,17,7,1,C03B2E!FLR_C03B2E,0,,0,0.1,1*4B
$PFLAU,1,1,2,1,3,69,2,7,18,C03B2E*08
$PGRMZ,220,f,3*1B
$GPRMC,165212.00,A,4506.29347,N,07537.33410,W,0.174,,220820,,,D*63
$GPGGA,165212.00,4506.29347,N,07537.33410,W,2,08,0.97,87.1,M,-34.1,M,,0000*52
$GPGSA,A,3,25,29,12,02,19,09,05,06,,,,,1.89,0.97,1.63*07
$PFLAA,3,6,17,7,1,C03B2E!FLR_C03B2E,0,,0,0.1,1*4B
$PFLAU,1,1,2,1,3,69,2,7,18,C03B2E*08
$PGRMZ,222,f,3*19
$GPRMC,165213.00,A,4506.29357,N,07537.33405,W,0.336,,220820,,,D*63
$GPGGA,165213.00,4506.29357,N,07537.33405,W,2,08,0.97,87.5,M,-34.1,M,,0000*52
$GPGSA,A,3,25,29,12,02,19,09,05,06,,,,,1.89,0.97,1.63*07
$GPRMC,165214.00,A,4506.29367,N,07537.33406,W,0.137,,220820,,,D*67
$PFLAU,0,1,2,1,0,,0,,,*4C
$PGRMZ,222,f,3*19
$GPGGA,165214.00,4506.29367,N,07537.33406,W,2,08,0.97,87.9,M,-34.1,M,,0000*59
$GPGSA,A,3,25,29,12,02,19,09,05,06,,,,,1.89,0.97,1.63*07
$GPRMC,165215.00,A,4506.29381,N,07537.33410,W,0.138,,220820,,,D*66
$PFLAU,0,1,2,1,0,,0,,,*4C
$PGRMZ,222,f,3*19
$GPGGA,165215.00,4506.29381,N,07537.33410,W,2,08,0.97,88.3,M,-34.1,M,,0000*52
$GPGSA,A,3,25,29,12,02,19,09,05,06,,,,,1.89,0.97,1.63*07
$GPRMC,165216.00,A,4506.29387,N,07537.33412,W,0.328,,220820,,,D*62
$PFLAU,0,1,2,1,0,,0,,,*4C
$PGRMZ,222,f,3*19
$GPGGA,165216.00,4506.29387,N,07537.33412,W,2,08,0.97,88.4,M,-34.1,M,,0000*52
$GPGSA,A,3,25,29,12,02,19,09,05,06,,,,,1.89,0.97,1.63*07
$GPRMC,165217.00,A,4506.29389,N,07537.33414,W,0.230,,220820,,,D*63
$PFLAU,0,1,2,1,0,,0,,,*4C
$PGRMZ,222,f,3*19
$GPGGA,165217.00,4506.29389,N,07537.33414,W,2,08,0.97,88.5,M,-34.1,M,,0000*5A
$GPGSA,A,3,25,29,12,02,19,09,05,06,,,,,1.89,0.97,1.62*06
$GPRMC,165218.00,A,4506.29395,N,07537.33420,W,0.145,,220820,,,D*67
$PFLAU,0,1,2,1,0,,0,,,*4C
$PGRMZ,222,f,3*19
$GPGGA,165218.00,4506.29395,N,07537.33420,W,2,08,0.97,88.6,M,-34.1,M,,0000*5C
$GPGSA,A,3,25,29,12,02,19,09,05,06,,,,,1.89,0.97,1.62*06
$GPRMC,165219.00,A,4506.29401,N,07537.33424,W,0.016,,220820,,,D*6F
$PFLAU,0,1,2,1,0,,0,,,*4C
$PGRMZ,221,f,3*1A
$GPGGA,165219.00,4506.29401,N,07537.33424,W,2,08,0.97,88.6,M,-34.1,M,,0000*53
$GPGSA,A,3,25,29,12,02,19,09,05,06,,,,,1.89,0.97,1.62*06
$GPRMC,165220.00,A,4506.29400,N,07537.33424,W,0.469,,220820,,,D*68
$PFLAU,0,1,2,1,0,,0,,,*4C
$PGRMZ,221,f,3*1A
$GPGGA,165220.00,4506.29400,N,07537.33424,W,2,08,0.97,88.4,M,-34.1,M,,0000*5A
$GPGSA,A,3,25,29,12,02,19,09,05,06,,,,,1.89,0.97,1.62*06
$GPRMC,165221.00,A,4506.29401,N,07537.33422,W,0.230,,220820,,,D*64
$GPGGA,165221.00,4506.29401,N,07537.33422,W,2,08,0.97,88.2,M,-34.1,M,,0000*5A
$GPGSA,A,3,25,29,12,02,19,09,05,06,,,,,1.89,0.97,1.62*06
$PFLAU,0,1,2,1,0,,0,,,*4C
$PGRMZ,221,f,3*1A
$GPRMC,165222.00,A,4506.29400,N,07537.33426,W,0.087,,220820,,,D*6C
$GPGGA,165222.00,4506.29400,N,07537.33426,W,2,08,0.97,88.1,M,-34.1,M,,0000*5F
$GPGSA,A,3,25,29,12,02,19,09,05,06,,,,,1.89,0.97,1.62*06
$PFLAU,0,1,2,1,0,,0,,,*4C
$PGRMZ,221,f,3*1A
$GPRMC,165223.00,A,4506.29395,N,07537.33428,W,0.309,,220820,,,D*6D
$GPGGA,165223.00,4506.29395,N,07537.33428,W,2,08,0.97,87.8,M,-34.1,M,,0000*5D
$GPGSA,A,3,25,29,12,02,19,09,05,06,,,,,1.89,0.97,1.62*06
$PFLAU,0,1,2,1,0,,0,,,*4C
$PGRMZ,221,f,3*1A
$GPRMC,165224.00,A,4506.29387,N,07537.33431,W,0.204,,220820,,,D*6D
$GPGGA,165224.00,4506.29387,N,07537.33431,W,2,08,0.97,87.4,M,-34.1,M,,0000*5D
$GPGSA,A,3,25,29,12,02,19,09,05,06,,,,,1.89,0.97,1.62*06
$PFLAU,0,1,2,1,0,,0,,,*4C
$PGRMZ,222,f,3*19
$GPRMC,165225.00,A,4506.29385,N,07537.33435,W,0.162,,220820,,,D*69
$GPGGA,165225.00,4506.29385,N,07537.33435,W,2,08,0.97,87.4,M,-34.1,M,,0000*5A
$GPGSA,A,3,25,29,12,02,19,09,05,06,,,,,1.89,0.97,1.62*06
$PFLAU,0,1,2,1,0,,0,,,*4C
$PGRMZ,221,f,3*1A
$GPRMC,165226.00,A,4506.29390,N,07537.33436,W,0.597,358.64,220820,,,D*71
$GPGGA,165226.00,4506.29390,N,07537.33436,W,2,08,0.97,87.6,M,-34.1,M,,0000*5C
$GPGSA,A,3,25,29,12,02,19,09,05,06,,,,,1.89,0.97,1.62*06
$PFLAU,0,1,2,1,0,,0,,,*4C
$PGRMZ,223,f,3*18
$GPRMC,165227.00,A,4506.29381,N,07537.33435,W,0.171,,220820,,,D*6D
$GPGGA,165227.00,4506.29381,N,07537.33435,W,2,08,0.97,87.3,M,-34.1,M,,0000*5B
$GPGSA,A,3,25,29,12,02,19,09,05,06,,,,,1.89,0.97,1.62*06
$PFLAU,0,1,2,1,0,,0,,,*4C
$PGRMZ,221,f,3*1A
$GPRMC,165228.00,A,4506.29374,N,07537.33438,W,0.216,,220820,,,D*67
$GPGGA,165228.00,4506.29374,N,07537.33438,W,2,08,0.97,87.2,M,-34.1,M,,0000*52
$GPGSA,A,3,25,29,12,02,19,09,05,06,,,,,1.89,0.97,1.62*06
$PFLAU,0,1,2,1,0,,0,,,*4C
$PGRMZ,222,f,3*19
$GPRMC,165229.00,A,4506.29368,N,07537.33440,W,0.136,,220820,,,D*65
$GPGGA,165229.00,4506.29368,N,07537.33440,W,2,08,0.97,87.3,M,-34.1,M,,0000*50
$GPGSA,A,3,25,29,12,02,19,09,05,06,,,,,1.89,0.97,1.62*06
$PFLAU,0,1,2,1,0,,0,,,*4C
$PGRMZ,222,f,3*19
$GPRMC,165230.00,A,4506.29363,N,07537.33440,W,0.157,,220820,,,D*61
$GPGGA,165230.00,4506.29363,N,07537.33440,W,2,08,0.97,87.6,M,-34.1,M,,0000*56
$GPGSA,A,3,25,29,12,02,19,09,05,06,,,,,1.89,0.97,1.62*06
$PFLAU,0,1,2,1,0,,0,,,*4C
$PGRMZ,221,f,3*1A
$GPRMC,165231.00,A,4506.29354,N,07537.33446,W,0.177,,220820,,,D*60
$GPGGA,165231.00,4506.29354,N,07537.33446,W,2,08,0.97,87.5,M,-34.1,M,,0000*56
$GPGSA,A,3,25,29,12,02,19,09,05,06,,,,,1.89,0.97,1.62*06
$PFLAU,0,1,2,1,0,,0,,,*4C
$PGRMZ,223,f,3*18
$GPRMC,165232.00,A,4506.29342,N,07537.33454,W,0.083,,220820,,,D*6D
$GPGGA,165232.00,4506.29342,N,07537.33454,W,2,08,0.97,87.4,M,-34.1,M,,0000*50
$GPGSA,A,3,25,29,12,02,19,09,05,06,,,,,1.89,0.97,1.62*06
$PFLAU,0,1,2,1,0,,0,,,*4C
$PGRMZ,222,f,3*19
$GPRMC,165233.00,A,4506.29335,N,07537.33455,W,0.062,,220820,,,D*62
